hcode,hname,prov,ampr,tumbon,latitude,longitude
06454,รพ.สต.บ้านดู่ใต้,น่าน,เมืองน่าน,ดู่ใต้,18.7310338,100.7513442
06455,รพ.สต.บ้านดอนมูล,น่าน,เมืองน่าน,ดู่ใต้,18.7569046,100.7620849
06464,รพ.สต.บ้านเมืองจัง,น่าน,ภูเพียง,เมืองจัง,18.858646,100.819613
06472,รพ.สต.บ้านตอง,น่าน,แม่จริม,แม่จริม,18.8489435,101.0292934
06482,รพ.สต.เชียงของ,น่าน,นาน้อย,เชียงของ,18.3099011,100.7357928
06483,รพ.สต.ศรีษะเกษ,น่าน,นาน้อย,ศรีษะเกษ,18.3789294,100.8225732
05807,รพ.สต.บ้านคำพอก,มุกดาหาร,หนองสูง,โนนยาง,16.5068967,104.245408
05812,ศูนย์บริการสาธารณสุขเทศบาลตำบลสุเทพ,เชียงใหม่,เมืองเชียงใหม่,สุเทพ,18.7693372,98.9496626
05819,รพ.สต.บ้านป่าข่อยเหนือ,เชียงใหม่,เมืองเชียงใหม่,สันผีเสื้อ,18.8693431,98.98108429999999
05829,รพ.สต.บ้านวังน้ำหยาด,เชียงใหม่,จอมทอง,แม่สอย,18.2971437,98.6424218
05830,รพ.สต.บ้านใหม่สารภี,เชียงใหม่,จอมทอง,แม่สอย,18.2819728,98.6599935
05866,รพ.สต.บ้านช่อแล,เชียงใหม่,แม่แตง,ช่อแล,19.145513,99.0112
05869,รพ.สต.บ้านเป้า,เชียงใหม่,แม่แตง,บ้านเป้า,19.1875004,98.9973969
05874,รพ.สต.บ้านแม่ตะมาน,เชียงใหม่,แม่แตง,กื้ดช้าง,19.2024104,98.8858442
06508,รพ.สต.แสนทอง,น่าน,ท่าวังผา,แสนทอง,19.1468215,100.7210593
05279,รพ.สต.บ้านอนามัย,ร้อยเอ็ด,จังหาร,ผักแว่น,16.1654569,103.5470083
05290,รพ.สต.บ้านขมิ้น,ร้อยเอ็ด,หนองฮี,เด่นราษฎร์,15.6145514,103.9963395
05291,รพ.สต.บ้านต้อน,กาฬสินธุ์,เมืองกาฬสินธุ์,เหนือ,16.425383,103.559182
06022,รพ.สต.บ้านบวกครกเหนือ,เชียงใหม่,สารภี,ท่าวังตาล,18.7245603,99.01276759999999
05229,รพ.สต.บ้านหนองควายอีน้อย,ร้อยเอ็ด,สุวรรณภูมิ,เมืองทุ่ง,15.5975686,103.8577569
05230,รพ.สต.บ้านตากแดด,ร้อยเอ็ด,สุวรรณภูมิ,หัวโทน,15.6855526,103.8177232
06834,รพ.สต.รักไทย,แม่ฮ่องสอน,เมืองแม่ฮ่องสอน,หมอกจำแป่,19.5843719,97.9443252
06835,รพ.สต.ห้วยผา,แม่ฮ่องสอน,เมืองแม่ฮ่องสอน,ห้วยผา,19.5095788,98.0247005
06837,รพ.สต.นาปลาจาด,แม่ฮ่องสอน,เมืองแม่ฮ่องสอน,ห้วยผา,19.5228423,97.991986
06839,รพ.สต.หนองขาวกลาง,แม่ฮ่องสอน,เมืองแม่ฮ่องสอน,ห้วยปูลิง,19.2297818,98.1125256
06291,รพ.สต.บ้านฝาย,อุตรดิตถ์,น้ำปาด,บ้านฝาย,17.770154,100.7258148
06292,รพ.สต.บ้านท่าโพธิ์,อุตรดิตถ์,น้ำปาด,เด่นเหล็ก,17.7975729,100.756633
06295,รพ.สต.บ้านห้วยแมง,อุตรดิตถ์,น้ำปาด,น้ำไคร้,17.607345,100.532059
06761,รพ.สต.บ้านด้าย,เชียงราย,แม่สาย,บ้านด้าย,20.2933805,99.9441141
06164,รพ.สต.บ้านน้ำจำ,ลำปาง,งาว,หลวงใต้,18.7290888,99.9703702
06168,รพ.สต.บ้านพร้าว,ลำปาง,งาว,ปงเตา,18.8249582,99.9494505
05167,รพ.สต.บ้านโพนทองน้อย,ร้อยเอ็ด,โพนทอง,โพธิ์ทอง,16.3112815,103.932007
05171,รพ.สต.บ้านงิ้วเหนือ,ร้อยเอ็ด,โพนทอง,โนนชัยศรี,16.1850984,103.9466078
06173,รพ.สต.บ้านหวด,ลำปาง,งาว,บ้านหวด,18.618382,99.87947439999999
06178,รพ.สต.บ้านเปียงใจ,ลำปาง,แจ้ห่ม,ปงดอน,18.8151276,99.7423578
06565,รพ.สต.บ้านใหม่,พะเยา,เมืองพะเยา,บ้านใหม่,19.2961794,99.73441539999999
06566,รพ.สต.จำป่าหวาย,พะเยา,เมืองพะเยา,จำป่าหวาย,19.0959551,99.95768489999999
06196,รพ.สต.บ้านแม่วะหลวง ตำบลแม่วะ,ลำปาง,เถิน,แม่วะ,17.5348914,99.1532758
06197,รพ.สต.บ้านเด่นชัย,ลำปาง,เถิน,แม่วะ,17.5348914,99.1532758
05189,รพ.สต.บ้านฉะวะ,ร้อยเอ็ด,หนองพอก,หนองพอก,16.3272482,104.1765642
06570,รพ.สต.ท่าจำปี,พะเยา,เมืองพะเยา,ท่าจำปี,19.243935,99.8270392
06574,รพ.สต.บ้านธาตุขิงแกง,พะเยา,จุน,พระธาตุขิงแกง,19.2936169,100.1871844
05339,รพ.สต.บ้านนาสีนวล,กาฬสินธุ์,กุฉินารายณ์,จุมจัง,16.4672235,104.100696
05342,รพ.สต.บ้านท่าไคร้ (บ้านนาไคร้),กาฬสินธุ์,กุฉินารายณ์,กุดหว้า,16.5192861,104.1122467
05343,รพ.สต.บ้านกุดหว้า,กาฬสินธุ์,กุฉินารายณ์,กุดหว้า,16.5205611,104.1124489
05344,รพ.สต.หนองแวงศรี (บ้านสุขแสงทอง),กาฬสินธุ์,กุฉินารายณ์,สามขา,16.4989695,103.9713617
05193,รพ.สต.บ้านโนนสว่าง,ร้อยเอ็ด,หนองพอก,ภูเขาทอง,16.3804693,104.1817021
05194,รพ.สต.บ้านหนองหว้า,ร้อยเอ็ด,หนองพอก,กกโพธิ์,16.3374077,104.1470135
05195,รพ.สต.บ้านคำโพนสูง,ร้อยเอ็ด,หนองพอก,กกโพธิ์,16.280792,104.1217655
05330,รพ.สต.บ้านหนองบัว,กาฬสินธุ์,กมลาไสย,เจ้าท่า,16.2161777,103.6259997
06664,รพ.สต.บ้านโล๊ะป่าตุ้ม,เชียงราย,เมืองเชียงราย,ดอยลาน,19.6803917,99.9744317
06665,รพ.สต.ป่าอ้อดอนชัย,เชียงราย,เมืองเชียงราย,ป่าอ้อดอนชัย,19.8423954,99.7662962
05198,รพ.สต.บ้านดงบัง,ร้อยเอ็ด,หนองพอก,หนองขุ่นใหญ่,16.2264972,104.1448098
05203,รพ.สต.บ้านพันขาง,ร้อยเอ็ด,เสลภูมิ,นางาม,15.9156561,103.9742389
05204,รพ.สต.บ้านกุดแข้,ร้อยเอ็ด,เสลภูมิ,นางาม,15.9258915,103.9434841
05206,รพ.สต.บ้านไคร่นุ่น,ร้อยเอ็ด,เสลภูมิ,นาแซง,16.165161,103.972273
05207,รพ.สต.บ้านใหม่สามัคคี,ร้อยเอ็ด,เสลภูมิ,นาแซง,16.1345554,103.9569691
05333,รพ.สต.บ้านนาเรียง,กาฬสินธุ์,ร่องคำ,สามัคคี,16.312861,103.710779
05334,รพ.สต.บ้านค้อพัฒนา,กาฬสินธุ์,ร่องคำ,เหล่าอ้อย,16.2596306,103.7206367
05336,รพ.สต.บ้านกุดฝั่งแดง,กาฬสินธุ์,กุฉินารายณ์,เหล่าใหญ่,16.5750255,103.9566802
06180,รพ.สต.บ้านกิ่ว,ลำปาง,แจ้ห่ม,แม่สุก,18.9857203,99.61420919999999
06183,รพ.สต.บ้านทุ่งผึ้ง ตำบลทุ่งผึ้ง,ลำปาง,แจ้ห่ม,ทุ่งผึ้ง,18.9515488,99.6687719
06184,รพ.สต.บ้านแจ้คอน,ลำปาง,แจ้ห่ม,ทุ่งผึ้ง,18.9255378,99.66295129999999
06347,รพ.สต.ป่าแมต,แพร่,เมืองแพร่,ป่าแมต,18.1456732,100.1215791
05474,รพ.สต.บ้านวังยาง,สกลนคร,พรรณานิคม,วังยาง,17.3263848,103.8922691
04960,รพ.สต.บ้านนาสีนวน,มหาสารคาม,กันทรวิชัย,นาสีนวน,16.3354669,103.1878055
06352,รพ.สต.แม่คำมี,แพร่,เมืองแพร่,แม่คำมี,18.2407067,100.191578
04984,รพ.สต.บ้านบ่อใหญ่,มหาสารคาม,บรบือ,บ่อใหญ่,16.1124105,103.197308
04985,รพ.สต.บ้านหัวหนอง,มหาสารคาม,บรบือ,บ่อใหญ่,16.1124105,103.197308
04986,รพ.สต.บ้านดงมัน,มหาสารคาม,บรบือ,หนองม่วง,15.9560363,103.1970857
06784,รพ.สต.บ้านห้วยก้าง,เชียงราย,พญาเม็งราย,ไม้ยา,19.7556358,100.1199684
05346,รพ.สต.บ้านโนนฟองแก้ว,กาฬสินธุ์,กุฉินารายณ์,นาขาม,16.5050426,103.9370797
05350,รพ.สต.บ้านหนองบัวทอง,กาฬสินธุ์,กุฉินารายณ์,สมสะอาด,16.4141367,104.051027
05351,รพ.สต.บ้านกุดค้าว,กาฬสินธุ์,กุฉินารายณ์,กุดค้าว,16.500179,104.015138
05352,รพ.สต.บ้านกุดบอด,กาฬสินธุ์,เขาวง,สงเปลือย,16.6428047,104.1311168
04988,รพ.สต.บ้านโนนราษี,มหาสารคาม,บรบือ,โนนราษี,15.9216853,103.1139808
04990,รพ.สต.บ้านโนนทอง,มหาสารคาม,บรบือ,โนนแดง,15.8701429,103.1143301
04991,รพ.สต.บ้านหนองจิก,มหาสารคาม,บรบือ,หนองจิก,16.0246167,103.1631617
04992,รพ.สต.บ้านดอนบม,มหาสารคาม,บรบือ,หนองจิก,16.0196123,103.1625005
04993,รพ.สต.บ้านบัวมาศ,มหาสารคาม,บรบือ,บัวมาศ,15.8865537,103.2148026
04995,รพ.สต.บ้านโสกภารา,มหาสารคาม,บรบือ,หนองคูขาด,15.9559541,103.01492
04996,รพ.สต.บ้านวังปลาโด,มหาสารคาม,บรบือ,วังใหม่,16.0210873,103.0417777
04997,รพ.สต.บ้านบกพร้าว,มหาสารคาม,บรบือ,ยาง,15.9367023,103.2438448
04998,รพ.สต.บ้านหนองโก,มหาสารคาม,บรบือ,หนองโก,16.0693768,103.2187404
05301,รพ.สต.บ้านดงสว่าง,กาฬสินธุ์,เมืองกาฬสินธุ์,ห้วยโพธิ์,16.3729,103.5659705
05303,รพ.สต.บ้านเหล่าหลวง,กาฬสินธุ์,เมืองกาฬสินธุ์,ลำปาว,16.641994,103.5093312
05304,รพ.สต.บ้านคำไผ่,กาฬสินธุ์,เมืองกาฬสินธุ์,หนองกุง,16.5173027,103.5155415
05312,รพ.สต.บ้านยอดแกง,กาฬสินธุ์,นามน,ยอดแกง,16.59768,103.7578815
06043,รพ.สต.บ้านห้วยแก้ว,เชียงใหม่,แม่ออน,ห้วยแก้ว,18.8709314,99.3118282
06045,รพ.สต.บ้านป่าไม้ห้วยบง,เชียงใหม่,แม่ออน,ทาเหนือ,18.7220579,99.2824081
05214,รพ.สต.บ้านหนองฟ้า,ร้อยเอ็ด,เสลภูมิ,โพธิ์ทอง,16.141092,104.139988
05215,รพ.สต.บ้านนาโพธิ์,ร้อยเอ็ด,เสลภูมิ,โพธิ์ทอง,16.1202524,104.1141241
05216,รพ.สต.บ้านหวาย,ร้อยเอ็ด,เสลภูมิ,ภูเงิน,15.999703,104.0870322
05219,รพ.สต.บ้านดงหวาย,ร้อยเอ็ด,เสลภูมิ,เกาะแก้ว,16.171801,103.858528
05220,รพ.สต.บ้านผักกาดหญ้า,ร้อยเอ็ด,เสลภูมิ,นาเลิง,15.9665489,103.9276026
06671,รพ.สต.บ้านดงมะตึ๋น,เชียงราย,เวียงชัย,ผางาม,19.9183049,100.0331692
06674,รพ.สต.ดอนศิลา,เชียงราย,เวียงชัย,ดอนศิลา,19.8283563,100.0281059
06675,รพ.สต.บ้านดอนแก้ว,เชียงราย,เวียงชัย,เมืองชุม,19.9172447,99.99165029999999
06808,รพ.สต.บ้านท่าสันกลาง,เชียงราย,แม่ลาว,ดงมะดะ,19.7207372,99.6878954
06809,รพ.สต.จอมหมอกแก้ว,เชียงราย,แม่ลาว,จอมหมอกแก้ว,19.7684068,99.6920006
05645,รพ.สต.บ้านดอนสะฝาง,นครพนม,บ้านแพง,โพนทอง,17.9002287,104.2261463
05650,รพ.สต.หนองแวง,นครพนม,บ้านแพง,หนองแวง,17.8271811,104.257954
06676,รพ.สต.สถาน,เชียงราย,เชียงของ,สถาน,20.215567,100.3872978
06677,รพ.สต.บ้านน้ำม้า,เชียงราย,เชียงของ,สถาน,20.1996445,100.3759779
06678,รพ.สต.บ้านทุ่งอ่าง,เชียงราย,เชียงของ,สถาน,20.1878871,100.4279928
06680,รพ.สต.ม่วงชุม,เชียงราย,เชียงของ,ครึ่ง,20.1022004,100.4036868
06684,รพ.สต.บ้านใหม่ดอนแก้ว,เชียงราย,เชียงของ,ห้วยซ้อ,20.0798853,100.3069031
06687,รพ.สต.ศรีดอนชัย,เชียงราย,เชียงของ,ศรีดอนชัย,20.1508337,100.4116955
05476,รพ.สต.บ้านโนนเรือ,สกลนคร,พรรณานิคม,นาหัวบ่อ,17.2764939,103.9487061
05000,รพ.สต.บ้านหนองขาม,มหาสารคาม,บรบือ,ดอนงัว,15.8848049,103.1597358
05222,รพ.สต.บ้านนาวี,ร้อยเอ็ด,เสลภูมิ,ศรีวิลัย,16.1276561,104.0142903
05225,รพ.สต.บ้านน้ำจั้นใหญ่,ร้อยเอ็ด,เสลภูมิ,บึงเกลือ,15.9927976,104.0192485
05903,รพ.สต.บ้านแม่สูน,เชียงใหม่,ฝาง,แม่สูน,19.8580726,99.136623
05955,รพ.สต.บ้านร้องวัวแดง,เชียงใหม่,สันกำแพง,ร้องวัวแดง,18.7270371,99.2029317
05956,รพ.สต.บ้านป่าตาล,เชียงใหม่,สันกำแพง,บวกค้าง,18.7191532,99.1022576
06371,รพ.สต.ห้วยโรง,แพร่,ร้องกวาง,ห้วยโรง,18.2857225,100.3947116
05600,รพ.สต.บ้านหนองปลาดุก,นครพนม,เมืองนครพนม,บ้านผึ้ง,17.4219108,104.5675265
05601,รพ.สต.บ้านห้อม,นครพนม,เมืองนครพนม,อาจสามารถ,17.4789126,104.7286186
05602,รพ.สต.อาจสามารถ,นครพนม,เมืองนครพนม,อาจสามารถ,17.4553744,104.7429287
05611,รพ.สต.บ้านดอนแดง,นครพนม,เมืองนครพนม,คำเตย,17.2536692,104.7010036
06828,รพ.สต.ผาบ่อง,แม่ฮ่องสอน,เมืองแม่ฮ่องสอน,ผาบ่อง,19.2299363,97.9374948
06830,รพ.สต.กุงไม้สัก,แม่ฮ่องสอน,เมืองแม่ฮ่องสอน,ปางหมู,19.3829973,97.9483898
06831,รพ.สต.ในสอย,แม่ฮ่องสอน,เมืองแม่ฮ่องสอน,ปางหมู,19.3808704,97.8753689
06145,รพ.สต.บ้านสบป้าด,ลำปาง,แม่เมาะ,สบป้าด,18.2497863,99.7673492
06689,รพ.สต.บ้านเมืองกาญจน์,เชียงราย,เชียงของ,ริมโขง,20.3654991,100.354334
06693,รพ.สต.แม่ลอย,เชียงราย,เทิง,แม่ลอย,19.591771,100.060484
06697,รพ.สต.บ้านปางค่า,เชียงราย,เทิง,ตับเต่า,19.789084,100.340199
06698,รพ.สต.บ้านร่มโพธิ์ไทย,เชียงราย,เทิง,ตับเต่า,19.7473659,100.3929268
06701,รพ.สต.บ้านดอนแยง,เชียงราย,เทิง,หงาว,19.7030691,100.269258
06503,รพ.สต.บ้านพร้าว,น่าน,ท่าวังผา,ยม,19.0692567,100.9303236
05752,รพ.สต.บ้านสามขา,มุกดาหาร,เมืองมุกดาหาร,คำป่าหลาย,16.6876761,104.6587704
06526,รพ.สต.บ้านนาเคียน,น่าน,เวียงสา,จอมจันทร์,18.6235291,100.8304941
06544,รพ.สต.ป่าแลวหลวง,น่าน,สันติสุข,ป่าแลวหลวง,18.9400747,100.9199598
06548,รพ.สต.บ้านถ้ำเวียงแก,น่าน,สองแคว,นาไร่หลวง,19.3038565,100.7487461
06549,รพ.สต.ชนแดน,น่าน,สองแคว,ชนแดน,19.4308069,100.6775585
06705,รพ.สต.สันมะเค็ด,เชียงราย,พาน,สันมะเค็ด,19.5949274,99.8683073
05296,รพ.สต.บ้านฝายแตก,กาฬสินธุ์,เมืองกาฬสินธุ์,ลำพาน,16.4661471,103.4800805
05314,รพ.สต.บ้านสงเปลื่อย,กาฬสินธุ์,นามน,สงเปลือย,16.61105,103.8226352
05317,รพ.สต.บ้านข้าวหลาม,กาฬสินธุ์,กมลาไสย,กมลาไสย,16.3386481,103.575277
05160,รพ.สต.บ้านโคกกกม่วง,ร้อยเอ็ด,โพนทอง,โคกกกม่วง,16.1653408,104.0233032
05319,รพ.สต.เฉลิมพระเกียรติ 60 พรรษา นวมินทราชินี,กาฬสินธุ์,กมลาไสย,โพนงาม,16.3165201,103.6536376
06016,รพ.สต.บ้านศรีสองเมือง ตำบลไชยสถาน,เชียงใหม่,สารภี,ไชยสถาน,18.7336091,99.04428759999999
06017,รพ.สต.บ้านหัวดง,เชียงใหม่,สารภี,ขัวมุง,18.6608113,98.97520829999999
06112,รพ.สต.หนองล่อง,ลำพูน,เวียงหนองล่อง,หนองล่อง,18.4104195,98.7207763
06707,รพ.สต.ธารทอง,เชียงราย,พาน,ธารทอง,19.7144151,99.7288412
06709,รพ.สต.ดอยงาม,เชียงราย,พาน,ดอยงาม,19.543004,99.817613
06710,รพ.สต.หัวง้ม,เชียงราย,พาน,หัวง้ม,19.5241396,99.7865649
06712,รพ.สต.บ้านป่าบง,เชียงราย,พาน,เจริญเมือง,19.647102,99.7821278
06713,รพ.สต.ป่าหุ่ง,เชียงราย,พาน,ป่าหุ่ง,19.5669235,99.7080443
06717,รพ.สต.สันกลาง,เชียงราย,พาน,สันกลาง,19.593585,99.738013
06718,รพ.สต.แม่เย็น,เชียงราย,พาน,แม่เย็น,19.4534492,99.75776669999999
05372,รพ.สต.บ้านโนนสูง,กาฬสินธุ์,ยางตลาด,โนนสูง,16.481553,103.222447
05118,รพ.สต.บ้านบัวขาว,ร้อยเอ็ด,ปทุมรัตต์,สระบัว,15.5677668,103.4019565
06649,รพ.สต.บ้านนางแล,เชียงราย,เมืองเชียงราย,นางแล,20.0358519,99.83454739999999
06654,รพ.สต.สันทราย,เชียงราย,เมืองเชียงราย,สันทราย,19.8570388,99.81614979999999
05435,รพ.สต.บ้านนางาม,กาฬสินธุ์,นาคู,บ่อแก้ว,16.8175091,104.0246677
05437,รพ.สต.บ้านภูแล่นช้าง,กาฬสินธุ์,นาคู,ภูแล่นช้าง,16.7025687,103.9975257
05441,รพ.สต.บ้านม่วงนา,กาฬสินธุ์,ดอนจาน,ดอนจาน,16.4232826,103.6941672
08893,รพ.สต.บ้านวัดลาว,นครศรีธรรมราช,ปากพนัง,ชะเมา,8.2915836,100.0474135
08895,รพ.สต.บ้านตรงบน,นครศรีธรรมราช,ปากพนัง,คลองกระบือ,8.317944299999999,100.1586411
08896,รพ.สต.บ้านบางสระ,นครศรีธรรมราช,ปากพนัง,คลองกระบือ,8.3343508,100.1405606
08897,รพ.สต.บ้านบางบูชา,นครศรีธรรมราช,ปากพนัง,เกาะทวด,8.2791932,100.0919243
08899,รพ.สต.บ้านใหม่บน,นครศรีธรรมราช,ปากพนัง,บ้านใหม่,8.2725121,100.1423172
05268,รพ.สต.บ้านหนองใหญ่,ร้อยเอ็ด,ศรีสมเด็จ,หนองใหญ่,16.0280064,103.563755
05270,รพ.สต.บ้านสนามชัย ตำบลสวนจิก,ร้อยเอ็ด,ศรีสมเด็จ,สวนจิก,16.0541431,103.4829712
05683,รพ.สต.พิมาน,นครพนม,นาแก,พิมาน,16.9397587,104.5538744
05684,รพ.สต.บ้านหนองหอยใหญ่,นครพนม,นาแก,พุ่มแก,16.927118,104.587914
05688,รพ.สต.หนองบ่อ,นครพนม,นาแก,หนองบ่อ,16.9930494,104.3685116
05689,รพ.สต.บ้านดงขวาง,นครพนม,นาแก,หนองบ่อ,16.9712034,104.3423824
05945,รพ.สต.บ้านเปียง,เชียงใหม่,สันป่าตอง,บ้านแม,18.6122746,98.85437689999999
05947,รพ.สต.บ้านดงก๋ำ,เชียงใหม่,สันป่าตอง,ทุ่งสะโตก,18.5589646,98.8620186
08257,รพ.สต.บ้านไผ่โรงวัว,สุพรรณบุรี,สองพี่น้อง,บางตาเถร,14.163083,100.127249
08269,รพ.สต.ต้นตาล,สุพรรณบุรี,สองพี่น้อง,ต้นตาล,14.2167299,100.0502241
08270,รพ.สต.บ้านขื่อชนก,สุพรรณบุรี,สองพี่น้อง,ศรีสำราญ,14.2203534,99.9837399
08271,รพ.สต.ศรีสำราญ,สุพรรณบุรี,สองพี่น้อง,ศรีสำราญ,14.2099055,99.9249794
06230,รพ.สต.บ้านจัวเหนือ,ลำปาง,สบปราบ,สมัย,17.8874462,99.3849884
06231,รพ.สต.บ้านปงกา ตำบลแม่กว๊ะ,ลำปาง,สบปราบ,แม่กัวะ,17.9446188,99.35121339999999
05062,รพ.สต.บ้านป่าโพธิ์,มหาสารคาม,ยางสีสุราช,นาภู,15.6754098,103.0040128
05063,รพ.สต.บ้านเหล่าหมากคำ,มหาสารคาม,ยางสีสุราช,นาภู,15.6760814,103.0467676
05064,รพ.สต.บ้านดงแคน,มหาสารคาม,ยางสีสุราช,แวงดง,15.6560155,103.0144002
05716,รพ.สต.นางัว,นครพนม,นาหว้า,นางัว,17.4331629,104.1117492
06126,รพ.สต.บ้านเสด็จ,ลำปาง,เมืองลำปาง,บ้านเสด็จ,18.3893018,99.59539579999999
05274,รพ.สต.บ้านหนองบัวรอง,ร้อยเอ็ด,จังหาร,ดินดำ,16.1947864,103.6737446
05276,รพ.สต.บ้านท่าลาด,ร้อยเอ็ด,จังหาร,ม่วงลาด,16.2076221,103.5405862
05277,รพ.สต.บ้านเปลือยตาล,ร้อยเอ็ด,จังหาร,ดงสิงห์,16.18661,103.592663
06735,รพ.สต.สันทราย,เชียงราย,แม่จัน,สันทราย,19.8570388,99.81614979999999
06736,ศูนย์บริการสาธารณสุขที่ 1 เทศบาลตำบลท่าข้าวเปลือก,เชียงราย,แม่จัน,ท่าข้าวเปลือก,20.1749175,100.0247788
06740,รพ.สต.ศรีค้ำ,เชียงราย,แม่จัน,ศรีค้ำ,20.2107163,99.839888
06742,รพ.สต.จอมสวรรค์,เชียงราย,แม่จัน,จอมสวรรค์,20.1992686,99.9073986
06744,รพ.สต.เวียง,เชียงราย,เชียงแสน,เวียง,20.2751419,100.0878364
06250,รพ.สต.บ้านขาม,ลำปาง,เมืองปาน,หัวเมือง,18.984621,99.52538899999999
05848,รพ.สต.บ้านไตรสภาวะคาม,เชียงใหม่,เชียงดาว,ปิงโค้ง,19.422045,98.99046899999999
06132,รพ.สต.บ้านทุ่งม่านเหนือ,ลำปาง,เมืองลำปาง,บ้านเป้า,18.355903,99.43981
06137,รพ.สต.บ้านต้นธงชัย,ลำปาง,เมืองลำปาง,ต้นธงชัย,18.3206538,99.5226892
06140,รพ.สต.บ้านหัววัง,ลำปาง,เมืองลำปาง,บุญนาคพัฒนา,18.423861,99.608475
06144,รพ.สต.บ้านทาน,ลำปาง,แม่เมาะ,จางเหนือ,18.4534808,99.9438879
08859,รพ.สต.บ้านทุ่งควาย,นครศรีธรรมราช,ทุ่งสง,เขาโร,8.0537628,99.6007348
05065,รพ.สต.บ้านบุ่งง้าว,มหาสารคาม,ยางสีสุราช,แวงดง,15.617117,103.022731
05067,รพ.สต.บ้านสุขสำราญ,มหาสารคาม,ยางสีสุราช,ดงเมือง,15.6555555,103.1547453
05069,รพ.สต.บ้านหนองบัวสันตุ,มหาสารคาม,ยางสีสุราช,หนองบัวสันตุ,15.617533,103.156351
05070,รพ.สต.บ้านหนองแวง,มหาสารคาม,ยางสีสุราช,หนองบัวสันตุ,15.6331757,103.1798024
05856,รพ.สต.บ้านพันหลัง,เชียงใหม่,ดอยสะเก็ด,สำราญราษฎร์,18.8038523,99.10125629999999
08860,รพ.สต.บ้านหนองปลิง,นครศรีธรรมราช,ทุ่งสง,เขาโร,8.078168,99.63321599999999
08862,รพ.สต.บ้านคลองตูก,นครศรีธรรมราช,ทุ่งสง,กะปาง,8.0066685,99.6949382
08863,รพ.สต.กะปาง(บ้านคลองโสม),นครศรีธรรมราช,ทุ่งสง,กะปาง,8.044105199999999,99.65149269999999
08864,รพ.สต.บ้านก้างปลา,นครศรีธรรมราช,ทุ่งสง,ที่วัง,8.0772728,99.6572248
08870,รพ.สต.บ้านสหกรณ์,นครศรีธรรมราช,ทุ่งสง,เขาขาว,8.1082705,99.61117349999999
08872,รพ.สต.บ้านคลองจัง,นครศรีธรรมราช,นาบอน,นาบอน,8.238451099999999,99.619847
08874,รพ.สต.บ้านหนองดี,นครศรีธรรมราช,นาบอน,ทุ่งสง,8.301447,99.49939169999999
08879,รพ.สต.บ้านหน้าเขา,นครศรีธรรมราช,ทุ่งใหญ่,ทุ่งสัง,8.3640566,99.3425517
08881,รพ.สต.บ้านหนองใหญ่,นครศรีธรรมราช,ทุ่งใหญ่,ทุ่งใหญ่,8.360296,99.427679
08884,รพ.สต.บ้านคงคาเลียบ,นครศรีธรรมราช,ทุ่งใหญ่,กุแหระ,8.238314299999999,99.3284683
08885,รพ.สต.บ้านหนองคล้า,นครศรีธรรมราช,ทุ่งใหญ่,ปริก,8.2648992,99.4589958
08886,รพ.สต.หัวควน,นครศรีธรรมราช,ทุ่งใหญ่,ปริก,8.3071007,99.46655129999999
08887,รพ.สต.บ้านคลองเพรียง,นครศรีธรรมราช,ทุ่งใหญ่,บางรูป,8.387803,99.307693
05073,รพ.สต.บ้านหนองแหน,มหาสารคาม,กุดรัง,นาโพธิ์,16.0458982,102.9073872
05074,รพ.สต.บ้านเลิงแฝก,มหาสารคาม,กุดรัง,เลิงแฝก,15.9632447,102.9550673
05075,รพ.สต.บ้านหนองแวง,มหาสารคาม,กุดรัง,หนองแวง,16.0197431,102.9286099
05076,รพ.สต.บ้านห้วยแคน,มหาสารคาม,กุดรัง,หนองแวง,15.9465419,102.9028262
05078,รพ.สต.บ้านหัวนา,มหาสารคาม,กุดรัง,ห้วยเตย,16.1475131,103.0393372
05080,รพ.สต.บ้านโนนสว่าง,ร้อยเอ็ด,เมืองร้อยเอ็ด,เหนือเมือง,16.1022824,103.6784263
05086,รพ.สต.บ้านปอภาร,ร้อยเอ็ด,เมืองร้อยเอ็ด,ปอภาร  (ปอพาน),16.0814326,103.5154584
05090,รพ.สต.บ้านหนองแวง,ร้อยเอ็ด,เมืองร้อยเอ็ด,หนองแวง,15.9460345,103.6449543
09202,รพ.สต.ประสงค์,สุราษฎร์ธานี,ท่าชนะ,ประสงค์,9.5862915,98.9024603
09415,รพ.สต.สวี,ชุมพร,สวี,สวี,10.2524041,99.0665039
09418,รพ.สต.ท่าหิน,ชุมพร,สวี,ท่าหิน,10.2252361,99.1512432
09419,รพ.สต.ปากแพรก,ชุมพร,สวี,ปากแพรก,10.2678834,99.05710889999999
06209,รพ.สต.บ้านนาบ้านไร่,ลำปาง,เถิน,แม่ถอด,17.6892556,99.18026669999999
08406,รพ.สต.ห้วยด้วน,นครปฐม,ดอนตูม,ห้วยด้วน,13.8916186,100.0909724
06745,รพ.สต.บ้านแม่คำ,เชียงราย,เชียงแสน,ป่าสัก,20.2979691,100.2351836
07102,รพ.สต.อุทัยเก่า,อุทัยธานี,หนองฉาง,อุทัยเก่า,15.4067699,99.7957564
07103,รพ.สต.บ้านน้ำพุ,อุทัยธานี,หนองฉาง,ทุ่งโพ,15.3679561,99.75671609999999
07104,รพ.สต.ทุ่งโพ,อุทัยธานี,หนองฉาง,ทุ่งโพ,15.4415857,99.77201749999999
07108,รพ.สต.บ้านป่าหมาก,อุทัยธานี,หนองฉาง,เขาบางแกรก,15.3310781,99.67311880000001
07113,รพ.สต.ทุ่งพึ่ง,อุทัยธานี,หนองขาหย่าง,ทุ่งพึ่ง,15.412884,99.9185708
07114,รพ.สต.ท่าโพ,อุทัยธานี,หนองขาหย่าง,ท่าโพ,15.360836,99.930719
07116,รพ.สต.หลุมเข้า,อุทัยธานี,หนองขาหย่าง,หลุมเข้า,15.3009305,100.0275755
06259,รพ.สต.บ้านชายเขา,อุตรดิตถ์,เมืองอุตรดิตถ์,น้ำริด,17.7165746,100.1072586
06624,รพ.สต.บ้านเลี้ยว,พะเยา,ปง,งิม,19.2414201,100.363556
05398,รพ.สต.บ้านยางอุ้ม,กาฬสินธุ์,ท่าคันโท,ยางอู้ม,16.917444,103.288515
05575,รพ.สต.บ้านเหล่า,สกลนคร,เจริญศิลป์,บ้านเหล่า,17.6844219,103.5465835
06263,รพ.สต.บ้านห้วยฮ้า,อุตรดิตถ์,เมืองอุตรดิตถ์,บ้านด่านนาขาม,17.8093244,100.1031202
05576,รพ.สต.บ้านหนองแวง,สกลนคร,เจริญศิลป์,บ้านเหล่า,17.72641,103.537753
05577,รพ.สต.บ้านดอนสร้างไพร,สกลนคร,เจริญศิลป์,ทุ่งแก,17.612871,103.5188014
05108,รพ.สต.บ้านดงครั่งน้อย,ร้อยเอ็ด,เกษตรวิสัย,ดงครั่งน้อย,15.5120251,103.5561337
05131,รพ.สต.บ้านอีโคตร,ร้อยเอ็ด,จตุรพักตรพิมาน,ศรีโคตร,15.773344,103.5638928
05132,รพ.สต.บ้านคางฮุง,ร้อยเอ็ด,ธวัชบุรี,ธวัชบุรี,16.091341,103.8026797
05133,รพ.สต.บ้านจอมพล,ร้อยเอ็ด,ธวัชบุรี,นิเวศน์,16.0534532,103.7173325
05134,รพ.สต.บ้านหนองไผ่,ร้อยเอ็ด,ธวัชบุรี,หนองไผ่,15.9961867,103.722608
05136,รพ.สต.บ้านปรางค์กู่,ร้อยเอ็ด,ธวัชบุรี,มะอึ,16.0743839,103.7330005
05139,รพ.สต.บ้านหนองบั่ว,ร้อยเอ็ด,ธวัชบุรี,เขวาทุ่ง,15.9306431,103.7671311
05140,รพ.สต.บ้านมะบ้า,ร้อยเอ็ด,ทุ่งเขาหลวง,บึงงาม,15.9955117,103.9102649
05141,รพ.สต.บ้านดอนงัว,ร้อยเอ็ด,ธวัชบุรี,ไพศาล,16.012336,103.8160121
05143,รพ.สต.บ้านเมืองน้อย,ร้อยเอ็ด,ธวัชบุรี,เมืองน้อย,15.9756126,103.7716557
05144,รพ.สต.บ้านขาม,ร้อยเอ็ด,ธวัชบุรี,บึงนคร,16.0808369,103.8425916
05844,รพ.สต.บ้านแม่นะ,เชียงใหม่,เชียงดาว,แม่นะ,19.3254166,98.9533041
05094,รพ.สต.บ้านเมืองทอง,ร้อยเอ็ด,เมืองร้อยเอ็ด,เมืองทอง,15.9299632,103.5687117
05095,รพ.สต.บ้านเมืองบัว,ร้อยเอ็ด,เกษตรวิสัย,เมืองบัว,15.6036542,103.5953461
05096,รพ.สต.บ้านอุ่มเม้า,ร้อยเอ็ด,เกษตรวิสัย,เหล่าหลวง,15.7190889,103.5552603
07224,รพ.สต.วังควง,กำแพงเพชร,พรานกระต่าย,วังควง,16.7683988,99.389511
08889,รพ.สต.บ้านเปี๊ยะเนิน,นครศรีธรรมราช,ปากพนัง,คลองน้อย,8.3808738,100.1311163
08890,รพ.สต.บ้านแสงวิมาน,นครศรีธรรมราช,ปากพนัง,คลองน้อย,8.391763,100.092994
05100,รพ.สต.บ้านแจ่มอารมณ์,ร้อยเอ็ด,เกษตรวิสัย,ดงครั่งใหญ่,15.4367343,103.5292316
05101,รพ.สต.บ้านหนองกุง,ร้อยเอ็ด,เกษตรวิสัย,บ้านฝาง,15.6837268,103.448978
05102,รพ.สต.บ้านหัวหนอง,ร้อยเอ็ด,เกษตรวิสัย,หนองแวง,15.5906551,103.5899733
05103,รพ.สต.บ้านหนองอ่าง,ร้อยเอ็ด,เกษตรวิสัย,กำแพง,15.5699908,103.4784476
05104,รพ.สต.บ้านหนองสิม,ร้อยเอ็ด,เกษตรวิสัย,กู่กาสิงห์,15.5783325,103.669732
05105,รพ.สต.บ้านหนองบัวพัฒนา,ร้อยเอ็ด,เกษตรวิสัย,น้ำอ้อม,15.6301404,103.5089907
05106,รพ.สต.บ้านผำ,ร้อยเอ็ด,เกษตรวิสัย,โนนสว่าง,15.7111233,103.5065214
05754,รพ.สต.บ้านเหมืองบ่า,มุกดาหาร,เมืองมุกดาหาร,คำอาฮวน,16.5221314,104.6831551
05756,รพ.สต.บ้านดงเย็น,มุกดาหาร,เมืองมุกดาหาร,ดงเย็น,16.3812263,104.7006079
05757,รพ.สต.บ้านป่งโพง (หมู่3),มุกดาหาร,เมืองมุกดาหาร,ดงเย็น,16.4308724,104.6512657
05758,รพ.สต.บ้านดงมอน,มุกดาหาร,เมืองมุกดาหาร,ดงมอน,16.6586835,104.5037565
05110,รพ.สต.บ้านตาจ่อย,ร้อยเอ็ด,ปทุมรัตต์,ดอกล้ำ,15.5650904,103.3145278
08583,รพ.สต.บางเค็ม,เพชรบุรี,เขาย้อย,บางเค็ม,13.2932285,99.82436369999999
08588,รพ.สต.บ้านหนองโพธิ์ ตำบลหนองชุมพล,เพชรบุรี,เขาย้อย,หนองชุมพล,13.2766292,99.7873891
07228,รพ.สต.บ้านคุยประดู่,กำแพงเพชร,พรานกระต่าย,วังตะแบก,16.7227989,99.6764488
07232,รพ.สต.บ้านคลองพิไกร,กำแพงเพชร,พรานกระต่าย,คลองพิไกร,16.6601356,99.72972089999999
07236,รพ.สต.บ้านเกศกาสร,กำแพงเพชร,ลานกระบือ,ช่องลม,16.5647147,99.9186227
07245,รพ.สต.บ้านทุ่งทอง,กำแพงเพชร,ทรายทองวัฒนา,ทุ่งทอง,16.3460587,99.8973154
08858,รพ.สต.บ้านคอกช้าง,นครศรีธรรมราช,ทุ่งสง,นาหลวงเสน,8.211129,99.682997
08276,รพ.สต.เฉลิมพระเกียรติ 60 พรรษา นวมินทราชินี,สุพรรณบุรี,สองพี่น้อง,บ่อสุพรรณ,14.104433,99.851479
08281,รพ.สต.บ้านบางขวาก,สุพรรณบุรี,สามชุก,ย่านยาว,14.7212886,100.1203994
07130,รพ.สต.บ้านบึง,อุทัยธานี,บ้านไร่,บ้านบึง,15.0278072,99.55028809999999
05407,รพ.สต.บ้านหนองสรวง,กาฬสินธุ์,หนองกุงศรี,หนองสรวง,16.7511173,103.4259516
05410,รพ.สต.บ้านภูฮัง,กาฬสินธุ์,หนองกุงศรี,ดงมูล,16.8045503,103.2892952
05411,รพ.สต.บ้านหนองกุงเผือก,กาฬสินธุ์,หนองกุงศรี,ลำหนองแสน,16.668269,103.3212091
05412,รพ.สต.บ้านหนองหิน,กาฬสินธุ์,หนองกุงศรี,หนองหิน,16.8116278,103.3710782
05419,รพ.สต.บ้านขมิ้น,กาฬสินธุ์,สมเด็จ,ผาเสวย,16.7678103,103.8360909
05673,รพ.สต.บ้านโนนสะอาด,นครพนม,เรณูนคร,หนองย่างชิ้น,17.033057,104.705162
05674,รพ.สต.บ้านนาบั่ว,นครพนม,เรณูนคร,เรณูใต้,17.0281439,104.6534003
05694,รพ.สต.บ้านแก้ง,นครพนม,นาแก,บ้านแก้ง,16.915549,104.469501
05696,รพ.สต.ยอดชาด,นครพนม,วังยาง,ยอดชาด,17.0667595,104.3908304
05702,รพ.สต.บ้านแค,นครพนม,ศรีสงคราม,สามผง,17.6909138,104.2087347
05704,รพ.สต.สามผง,นครพนม,ศรีสงคราม,สามผง,17.730471,104.158225
05401,รพ.สต.บ้านหนองแซง,กาฬสินธุ์,ท่าคันโท,นาตาล,16.8656379,103.2652673
05402,รพ.สต.บ้านดงกลาง,กาฬสินธุ์,ท่าคันโท,ดงสมบูรณ์,16.8892267,103.3717853
05403,รพ.สต.บ้านดงสมบูรณ์,กาฬสินธุ์,ท่าคันโท,ดงสมบูรณ์,16.8662742,103.3840633
05406,รพ.สต.บ้านห้วยยางดง,กาฬสินธุ์,หนองกุงศรี,โคกเครือ,16.7321372,103.2945512
07362,รพ.สต.บ้านรวมไทยพัฒนาที่ 6,ตาก,พบพระ,รวมไทยพัฒนา,16.4510166,98.7965641
07364,รพ.สต.บ้านหนองหลวง,ตาก,อุ้มผาง,หนองหลวง,15.8794014,98.92453429999999
07366,รพ.สต.แม่จัน,ตาก,อุ้มผาง,แม่จัน,16.032801,98.656966
06103,รพ.สต.บ้านเรือน,ลำพูน,ป่าซาง,บ้านเรือน,18.5119762,98.8742947
06109,รพ.สต.บ้านห้วยไฟ,ลำพูน,ป่าซาง,นครเจดีย์,18.3276568,98.90765599999999
06081,รพ.สต.หนองปลาสวาย,ลำพูน,บ้านโฮ่ง,หนองปลาสะวาย,18.3359883,98.7219639
06097,รพ.สต.ตะเคียนปม,ลำพูน,ทุ่งหัวช้าง,ตะเคียนปม,18.0909066,99.0115708
05121,รพ.สต.บ้านเมืองหงส์,ร้อยเอ็ด,จตุรพักตรพิมาน,เมืองหงส์,15.87062,103.502308
05122,รพ.สต.หนองคลอง ตำบลโคกล่าม,ร้อยเอ็ด,จตุรพักตรพิมาน,โคกล่าม,15.9043774,103.5321234
05123,รพ.สต.บ้านน้ำใส,ร้อยเอ็ด,จตุรพักตรพิมาน,น้ำใส,15.8975843,103.6240431
05124,รพ.สต.บ้านดงแดง,ร้อยเอ็ด,จตุรพักตรพิมาน,ดงแดง,15.853382,103.620297
05125,รพ.สต.บ้านดงกลาง ตำบลดงกลาง,ร้อยเอ็ด,จตุรพักตรพิมาน,ดงกลาง,15.8026335,103.5914868
05126,รพ.สต.บ้านป่าสังข์,ร้อยเอ็ด,จตุรพักตรพิมาน,ป่าสังข์,15.8143477,103.6450139
05128,รพ.สต.บ้านอีง่อง,ร้อยเอ็ด,จตุรพักตรพิมาน,อีง่อง,15.7722155,103.5186094
05129,รพ.สต.บ้านลิ้นฟ้า,ร้อยเอ็ด,จตุรพักตรพิมาน,ลิ้นฟ้า,15.7751626,103.4408259
06634,รพ.สต.บ้านดงอินตา,พะเยา,แม่ใจ,บ้านเหล่า,19.3794516,99.84176939999999
07717,รพ.สต.นางั่ว,เพชรบูรณ์,เมืองเพชรบูรณ์,นางั่ว,16.5229659,101.1576503
07727,รพ.สต.วังชมภู ตำบลวังชมภู,เพชรบูรณ์,เมืองเพชรบูรณ์,วังชมภู,16.2508982,101.0662261
07735,รพ.สต.หนองโก,เพชรบูรณ์,ชนแดน,ท่าข้าม,16.2288271,100.7943639
07736,รพ.สต.เฉลิมพระเกียรติ 2530 น้ำลัด,เพชรบูรณ์,ชนแดน,พุทธบาท,16.2102534,100.9712984
07738,รพ.สต.เขาแม่แก่,เพชรบูรณ์,ชนแดน,ลาดแค,15.9162702,100.7830826
07739,รพ.สต.ลาดแค,เพชรบูรณ์,ชนแดน,ลาดแค,15.9548405,100.8225732
07740,รพ.สต.หนองใหญ่,เพชรบูรณ์,ชนแดน,ลาดแค,15.944865,100.8479688
06579,รพ.สต.บ้านสักลอ,พะเยา,จุน,หงส์หิน,19.5203602,100.1013244
05235,รพ.สต.บ้านหนองแวง,ร้อยเอ็ด,สุวรรณภูมิ,ห้วยหินลาด,15.6839318,103.8825012
05236,รพ.สต.บ้านคำพรินทร์,ร้อยเอ็ด,สุวรรณภูมิ,ช้างเผือก,15.6145514,103.9963395
09377,รพ.สต.คุริง,ชุมพร,ท่าแซะ,ทรัพย์อนันต์,10.7200089,99.2009815
09221,รพ.สต.บ้านปากน้ำ,สุราษฎร์ธานี,บ้านตาขุน,พะแสง,8.9026292,98.8646033
07249,รพ.สต.บ้านท่าขึ้น,กำแพงเพชร,ปางศิลาทอง,โพธิ์ทอง,16.1284618,99.55651089999999
06594,รพ.สต.บ้านจำบอน,พะเยา,เชียงคำ,อ่างทอง,19.5526441,100.2039477
06596,รพ.สต.บ้านปางมดแดง,พะเยา,เชียงคำ,อ่างทอง,19.5287925,100.1635813
05368,รพ.สต.บ้านขาม,กาฬสินธุ์,ยางตลาด,คลองขาม,16.5609169,102.9520589
06608,รพ.สต.ขุนลาน,พะเยา,ดอกคำใต้,ห้วยลาน,19.312508,100.030622
06612,รพ.สต.ป่าซาง,พะเยา,ดอกคำใต้,ป่าซาง,19.28413,100.0639407
06729,รพ.สต.บ้านแม่คำน้ำลัด,เชียงราย,แม่จัน,จันจว้า,20.2986815,99.972892
06730,รพ.สต.จันจว้า,เชียงราย,แม่จัน,จันจว้า,20.2452067,99.97216309999999
06732,รพ.สต.บ้านม่วงคำ,เชียงราย,แม่จัน,แม่คำ,20.2257007,99.8173757
09225,รพ.สต.บ้านเชี่ยวหลาน-ไกรสร,สุราษฎร์ธานี,บ้านตาขุน,เขาพัง,8.9750088,98.8444181
09232,รพ.สต.พลูเถื่อน,สุราษฎร์ธานี,พนม,พลูเถื่อน,8.7121397,98.72655689999999
09233,รพ.สต.คลองชะอุ่น,สุราษฎร์ธานี,พนม,คลองชะอุ่น,8.7513211,98.8019073
07247,รพ.สต.บ้านบึงสำราญ,กำแพงเพชร,ทรายทองวัฒนา,ถาวรวัฒนา,16.3183576,99.92806130000001
06621,รพ.สต.บ้านฝายแก้ว,พะเยา,ปง,ออย,19.2075209,100.3301431
05782,รพ.สต.บ้านกกตูม,มุกดาหาร,ดงหลวง,กกตูม,16.8480563,104.2284351
05783,รพ.สต.บ้านสานแว้,มุกดาหาร,ดงหลวง,กกตูม,16.7719799,104.159252
09206,รพ.สต.คันธุลี,สุราษฎร์ธานี,ท่าชนะ,คันธุลี,9.6699541,99.14492969999999
09209,รพ.สต.คลองพา,สุราษฎร์ธานี,ท่าชนะ,คลองพา,9.6744802,98.9024603
09210,รพ.สต.บ้านสัมปัง,สุราษฎร์ธานี,ท่าชนะ,คลองพา,9.6552027,98.9857005
09211,รพ.สต.บ้านท่าไท,สุราษฎร์ธานี,ท่าชนะ,คลองพา,9.6744006,98.9650802
05252,รพ.สต.บ้านสีสวาด,ร้อยเอ็ด,อาจสามารถ,หนองหมื่นถ่าน,15.7627744,103.9492051
05255,รพ.สต.บ้านหนองฮาง ตำบลหนองขาม,ร้อยเอ็ด,อาจสามารถ,หนองขาม,15.76917,103.8823159
05258,รพ.สต.หนองตาโฮม,ร้อยเอ็ด,อาจสามารถ,ขี้เหล็ก,15.8948075,103.7695855
05259,รพ.สต.บ้านยางเฌอ,ร้อยเอ็ด,อาจสามารถ,ขี้เหล็ก,15.9089871,103.8086462
05260,รพ.สต.บ้านดู่,ร้อยเอ็ด,อาจสามารถ,บ้านดู่,15.9063519,103.7260205
05261,รพ.สต.บ้านชุมพร,ร้อยเอ็ด,เมยวดี,ชุมพร,16.3683113,104.0549791
05262,รพ.สต.บ้านโคกสี,ร้อยเอ็ด,เมยวดี,ชุมพร,16.3597156,104.0944574
05264,รพ.สต.บ้านคำนางตุ้ม,ร้อยเอ็ด,เมยวดี,บุ่งเลิศ,16.4130674,104.1126985
05265,รพ.สต.บ้านชมสะอาด,ร้อยเอ็ด,เมยวดี,ชมสะอาด,16.3853636,104.0955529
05240,รพ.สต.บ้านผำ,ร้อยเอ็ด,เมืองสรวง,เมืองสรวง,15.8141091,103.7625935
05241,รพ.สต.บ้านหนองผือ,ร้อยเอ็ด,เมืองสรวง,หนองผือ,15.7945868,103.7234119
05243,รพ.สต.บ้านสูงยาง,ร้อยเอ็ด,เมืองสรวง,คูเมือง,15.7386413,103.7283011
08978,รพ.สต.บ้านควนส้าน,นครศรีธรรมราช,ช้างกลาง,ช้างกลาง,8.3704158,99.60977899999999
07648,รพ.สต.วังสำโรง บ้านวังสำโรง,พิจิตร,ตะพานหิน,วังสำโรง,16.232888,100.304927
07649,รพ.สต.วังหว้า,พิจิตร,ตะพานหิน,วังสำโรง,16.2222748,100.3748032
07650,รพ.สต.บ้านเขารวก,พิจิตร,ตะพานหิน,วังหลุม,16.2269866,100.543675
07652,รพ.สต.ทับหมัน บ้านทับหมันเหนือ,พิจิตร,ตะพานหิน,ทับหมัน,16.2142606,100.2812156
07812,รพ.สต.กองทูล,เพชรบูรณ์,หนองไผ่,กองทูล,15.94499,101.096319
07813,รพ.สต.นาเฉลียง,เพชรบูรณ์,หนองไผ่,นาเฉลียง,16.0860191,101.0539205
07816,รพ.สต.เพชรละคร,เพชรบูรณ์,หนองไผ่,เพชรละคร,15.9032964,101.1504111
08805,รพ.สต.บ้านวังวัว,นครศรีธรรมราช,พิปูน,ควนกลาง,8.5521449,99.5382758
08807,รพ.สต.บ้านกลาง,นครศรีธรรมราช,เชียรใหญ่,บ้านกลาง,8.115951299999999,100.1479182
08810,รพ.สต.บ้านช่องขาด,นครศรีธรรมราช,เชียรใหญ่,ไสหมาก,8.2205126,100.1307487
08811,รพ.สต.บ้านศรีรักษา,นครศรีธรรมราช,เชียรใหญ่,ท้องลำเจียก,8.1364714,100.122615
09338,รพ.สต.ปากจั่น,ระนอง,กระบุรี,ปากจั่น,10.5243657,98.84067759999999
09345,รพ.สต.นาคา,ระนอง,สุขสำราญ,นาคา,9.4505058,98.4929492
09346,รพ.สต.เฉลิมพระเกียรติ 60 พรรษา นวมินทราชินี ตำบลกำพวน,ระนอง,สุขสำราญ,กำพวน,9.377753,98.420467
09347,รพ.สต.ท่ายาง,ชุมพร,เมืองชุมพร,ท่ายาง,10.4695044,99.2126869
09351,รพ.สต.ตากแดด,ชุมพร,เมืองชุมพร,ตากแดด,10.467075,99.135381
09355,รพ.สต.วังไผ่,ชุมพร,เมืองชุมพร,วังไผ่,10.5342762,99.1366147
07064,รพ.สต.บ้านแม่กระสี,นครสวรรค์,แม่เปิน,แม่เปิน,15.7320125,99.3614123
08787,รพ.สต.บ้าน,นครศรีธรรมราช,ลานสกา,ขุนทะเล,8.334833999999999,99.8725662
08788,รพ.สต.บ้านบ่อทราย,นครศรีธรรมราช,ลานสกา,ขุนทะเล,8.333836,99.8736536
08793,รพ.สต.บ้านหนองท่อม,นครศรีธรรมราช,ฉวาง,ไม้เรียง,8.4560765,99.4493612
08794,รพ.สต.บ้านทานพอ,นครศรีธรรมราช,ฉวาง,ไม้เรียง,8.462978999999999,99.497728
09158,รพ.สต.ท่าทอง,สุราษฎร์ธานี,กาญจนดิษฐ์,ท่าทอง,9.109699599999999,99.5006143
09161,รพ.สต.ช้างซ้าย,สุราษฎร์ธานี,กาญจนดิษฐ์,ช้างซ้าย,9.1145819,99.4799855
07072,รพ.สต.โนนเหล็ก,อุทัยธานี,เมืองอุทัยธานี,โนนเหล็ก,15.4551719,100.0080005
07182,รพ.สต.บ้านบึงหล่ม,กำแพงเพชร,คลองลาน,คลองน้ำไหล,16.1807605,99.3791689
07188,รพ.สต.บ้านคลองเตย,กำแพงเพชร,คลองลาน,คลองลานพัฒนา,16.1490128,99.3356082
11857,รพ.สต.บ้านหนองโพรง,ปราจีนบุรี,ศรีมหาโพธิ,หนองโพรง,13.8138413,101.5589105
08762,รพ.สต.บ้านท่างาม,นครศรีธรรมราช,เมืองนครศรีธรรมราช,ท่างิ้ว,8.4796199,99.8683073
08763,รพ.สต.บ้านยวนแหล,นครศรีธรรมราช,เมืองนครศรีธรรมราช,โพธิ์เสด็จ,8.433722399999999,99.90464469999999
08764,รพ.สต.บ้านทุ่งแย้,นครศรีธรรมราช,เมืองนครศรีธรรมราช,โพธิ์เสด็จ,8.411083999999999,99.93387299999999
08765,รพ.สต.บ้านบางใหญ่,นครศรีธรรมราช,เมืองนครศรีธรรมราช,บางจาก,8.406093199999999,100.063686
08769,รพ.สต.บ้านนาวง,นครศรีธรรมราช,เมืองนครศรีธรรมราช,ท่าซัก,8.455408000000002,99.99701400000001
08695,รพ.สต.บ้านไร่บน,ประจวบคีรีขันธ์,กุยบุรี,หาดขาม,12.0942139,99.8054796
07073,รพ.สต.หนองเต่า,อุทัยธานี,เมืองอุทัยธานี,หนองเต่า,15.4664509,99.96460739999999
07078,รพ.สต.ทุ่งนาไทย,อุทัยธานี,ทัพทัน,ทุ่งนาไทย,15.4476254,99.9185708
07081,รพ.สต.โคกหม้อ,อุทัยธานี,ทัพทัน,ทัพทัน,15.5496249,99.9046058
09287,รพ.สต.พุนพิน,สุราษฎร์ธานี,พุนพิน,พุนพิน,9.110849600000002,99.1867334
09288,รพ.สต.ท่าสะท้อน,สุราษฎร์ธานี,พุนพิน,ท่าสะท้อน,9.0097407,99.2650292
09289,รพ.สต.ลีเล็ด,สุราษฎร์ธานี,พุนพิน,ลีเล็ด,9.1783812,99.2452167
09291,รพ.สต.บางเดือน,สุราษฎร์ธานี,พุนพิน,บางเดือน,9.0166636,99.07369639999999
08944,รพ.สต.บ้านมาบยอด,นครศรีธรรมราช,หัวไทร,เขาพังไกร,7.9750723,100.2904984
08953,รพ.สต.บ้านเคี่ยมงาม ตำบลบ้านลำนาว,นครศรีธรรมราช,บางขัน,วังหิน,7.955272199999999,99.4433928
08954,รพ.สต.บ้านหนองเจ,นครศรีธรรมราช,บางขัน,วังหิน,7.9542253,99.5392931
07004,รพ.สต.บ้านเขาดิน,นครสวรรค์,ไพศาลี,วังน้ำลัด,15.7304466,100.7354802
07005,รพ.สต.บ้านตะกรุดภิบาล,นครสวรรค์,ไพศาลี,วังน้ำลัด,15.6738376,100.6162066
07007,รพ.สต.บ้านเนินสาร,นครสวรรค์,ไพศาลี,ตะคร้อ,15.5339632,100.6153364
07621,รพ.สต.ป่ามะคาบ,พิจิตร,เมืองพิจิตร,ป่ามะคาบ,16.5143833,100.3820573
09293,รพ.สต.กรูด,สุราษฎร์ธานี,พุนพิน,กรูด,8.9154105,99.1836943
09361,รพ.สต.วิสัยเหนือ,ชุมพร,เมืองชุมพร,วิสัยเหนือ,10.3379145,99.1054712
09366,รพ.สต.ท่าแซะ,ชุมพร,ท่าแซะ,ท่าแซะ,10.6636281,99.1933597
08955,รพ.สต.บ้านสมสรร,นครศรีธรรมราช,บางขัน,บ้านนิคม,7.9210378,99.51729259999999
08959,รพ.สต.บ้านเกาะขวัญ,นครศรีธรรมราช,ถ้ำพรรณรา,ดุสิต,8.4449844,99.3590169
08963,รพ.สต.บ้านอ้ายเลา,นครศรีธรรมราช,จุฬาภรณ์,ทุ่งโพธิ์,8.1233525,99.8030277
08964,รพ.สต.บ้านกาโห่เหนือ,นครศรีธรรมราช,จุฬาภรณ์,นาหมอบุญ,8.036664499999999,99.86047339999999
06879,รพ.สต.เลโค๊ะ,แม่ฮ่องสอน,สบเมย,สบเมย,17.8482988,97.8558357
06880,รพ.สต.บ้านผาผ่า,แม่ฮ่องสอน,สบเมย,แม่คะตวน,18.0342097,97.9307338
06882,รพ.สต.อุมโล๊ะ,แม่ฮ่องสอน,สบเมย,แม่สวด,17.705742,98.03186699999999
06883,รพ.สต.กองแปเหนือ,แม่ฮ่องสอน,สบเมย,ป่าโปง,18.1010988,98.1447804
09510,รพ.สต.น้ำเชี่ยว,สงขลา,สะบ้าย้อย,เขาแดง,6.456964399999999,100.8282161
07444,รพ.สต.บ้านเตว็ดนอก,สุโขทัย,ศรีสำโรง,ทับผึ้ง,17.0812797,99.8383772
07445,รพ.สต.บ้านซ่าน,สุโขทัย,ศรีสำโรง,บ้านซ่าน,17.2060308,99.7681515
07671,รพ.สต.บางคลาน,พิจิตร,โพทะเล,บางคลาน,16.0161036,100.2736411
07677,รพ.สต.รังนก,พิจิตร,สามง่าม,สามง่าม,16.4294124,100.2081884
07685,รพ.สต.บ้านหนองหญ้าปล้อง,พิจิตร,วชิรบารมี,หนองหลุม,16.5691706,100.1349048
09295,รพ.สต.ศรีวิชัย,สุราษฎร์ธานี,พุนพิน,ศรีวิชัย,9.155187999999999,99.2240222
07819,รพ.สต.บ้านกลาง,เพชรบูรณ์,หนองไผ่,วังท่าดี,15.9984238,101.1971473
07820,รพ.สต.บัววัฒนา,เพชรบูรณ์,หนองไผ่,บัววัฒนา,15.882452,101.015822
09866,รพ.สต.บ้านพรุพ้อ,พัทลุง,ป่าบอน,โคกทราย,7.196319,100.2366531
07742,รพ.สต.ซับพุทรา,เพชรบูรณ์,ชนแดน,ซับพุทรา,16.0308002,100.9241963
07743,รพ.สต.ตำบลตะกุดไร,เพชรบูรณ์,ชนแดน,ตะกุดไร,16.1803309,100.7210593
07746,รพ.สต.ท่าช้าง ตำบลตาลเดี่ยว,เพชรบูรณ์,หล่มสัก,ตาลเดี่ยว,16.7396253,101.2511047
07748,รพ.สต.หนองสว่าง,เพชรบูรณ์,หล่มสัก,หนองสว่าง,16.6981481,101.2523792
07749,รพ.สต.น้ำเฮี้ย,เพชรบูรณ์,หล่มสัก,น้ำเฮี้ย,16.8257457,101.2042144
07750,รพ.สต.หนองบัว,เพชรบูรณ์,หล่มสัก,สักหลง,16.857196,101.2665498
07751,รพ.สต.วังมล,เพชรบูรณ์,หล่มสัก,ท่าอิบุญ,16.8711618,101.3251806
07142,รพ.สต.สุขฤทัย,อุทัยธานี,ห้วยคต,สุขฤทัย,15.3106097,99.66261759999999
07144,รพ.สต.ทองหลาง,อุทัยธานี,ห้วยคต,ทองหลาง,15.3201825,99.5228528
07151,รพ.สต.บ้านหนองปิ้งไก่,กำแพงเพชร,เมืองกำแพงเพชร,นาบ่อคำ,16.4183774,99.3575967
10485,รพ.สต.ห้วยหมากลาง,แม่ฮ่องสอน,เมืองแม่ฮ่องสอน,ห้วยโป่ง,19.0797188,97.86127669999999
09298,รพ.สต.บ้านห้วยกรวด,สุราษฎร์ธานี,พุนพิน,มะลวน,9.152199999999999,99.1180887
09299,รพ.สต.หัวเตย,สุราษฎร์ธานี,พุนพิน,หัวเตย,9.140994,99.1740264
09301,รพ.สต.เขาหัวควาย,สุราษฎร์ธานี,พุนพิน,เขาหัวควาย,9.059976299999999,99.25057299999999
08817,รพ.สต.แม่เจ้าอยู่หัว,นครศรีธรรมราช,เชียรใหญ่,แม่เจ้าอยู่หัว,8.085022799999999,100.0919243
08822,รพ.สต.บ้านหัวถนน,นครศรีธรรมราช,ชะอวด,เคร็ง,7.9404495,100.0758115
08823,รพ.สต.บ้านควนชิง,นครศรีธรรมราช,ชะอวด,เคร็ง,7.945117999999999,100.1098047
08824,รพ.สต.วังอ่าง(บ้านหน้าควนหรั่ง),นครศรีธรรมราช,ชะอวด,วังอ่าง,7.928687099999999,99.9187369
08826,รพ.สต.บ้านขอนหาด,นครศรีธรรมราช,ชะอวด,ขอนหาด,7.85516,100.029
08827,รพ.สต.บ้านตรอกแค,นครศรีธรรมราช,ชะอวด,ขอนหาด,7.880124800000001,100.0428741
07823,รพ.สต.ท่าด้วง,เพชรบูรณ์,หนองไผ่,ท่าด้วง,16.0217151,101.3204164
07832,รพ.สต.เขาพลวง,เพชรบูรณ์,บึงสามพัน,สระแก้ว,15.8791319,101.2807224
07085,รพ.สต.บ้านคอดยาง,อุทัยธานี,ทัพทัน,หนองกระทุ่ม,15.5262436,99.7540446
07086,รพ.สต.หนองสระ,อุทัยธานี,ทัพทัน,ทัพทัน,15.4415857,99.77201749999999
07087,รพ.สต.ตลุกดู่,อุทัยธานี,ทัพทัน,ตลุกดู่,15.4415857,99.77201749999999
07753,รพ.สต.กกเดื่อ ตำบลบ้านติ้ว,เพชรบูรณ์,หล่มสัก,บ้านติ้ว,16.7797518,101.3005674
07758,รพ.สต.วังยาว,เพชรบูรณ์,หล่มสัก,ปากช่อง,16.7468376,101.4225592
07759,รพ.สต.ห้วยระหงส์,เพชรบูรณ์,หล่มสัก,ปากช่อง,16.7699596,101.4767885
07763,รพ.สต.ลานบ่า,เพชรบูรณ์,หล่มสัก,ลานบ่า,16.6896215,101.1957172
10493,รพ.สต.บ้านห้วยนา,แม่ฮ่องสอน,ขุนยวม,แม่เงา,18.8522633,97.81169159999999
10501,รพ.สต.ห้วยหมี,แม่ฮ่องสอน,ปาย,เมืองแปง,19.2513397,98.2541155
09433,รพ.สต.บ้านสามแยกจำปา,ชุมพร,ทุ่งตะโก,ตะโก,10.078395,98.98846999999999
09452,รพ.สต.พรวน,สงขลา,สทิงพระ,ท่าหิน,7.4156051,100.4087543
07713,รพ.สต.พนานิคม,เพชรบูรณ์,เมืองเพชรบูรณ์,บ้านโตก,16.3285963,101.0787658
10194,รพ.สต.บ้าน ก.ม.80,ปราจีนบุรี,นาดี,บุพราหมณ์,14.2767853,101.8941338
10199,รพ.สต.คลองปลาโด,สระแก้ว,เมืองสระแก้ว,ท่าแยก,13.9475936,102.2033025
09373,รพ.สต.ท่าข้าม,ชุมพร,ท่าแซะ,ท่าข้าม,10.641067,99.110737
07315,รพ.สต.บ้านอูมวาบ,ตาก,สามเงา,บ้านนา,17.3449035,98.6550235
07316,รพ.สต.บ้านโสมง,ตาก,สามเงา,บ้านนา,17.371274,98.8231842
07317,รพ.สต.บ้านสันป่าป๋วย,ตาก,สามเงา,บ้านนา,17.249165,98.8628736
07319,รพ.สต.บ้านดงลาน,ตาก,สามเงา,วังจันทร์,17.2767356,99.13611639999999
07320,รพ.สต.บ้านสันป่าไร่,ตาก,แม่ระมาด,พระธาตุ,16.9642392,98.6166358
07321,รพ.สต.บ้านวังผา,ตาก,แม่ระมาด,แม่จะเรา,16.832669,98.5374758
08972,รพ.สต.บ้านโรงเหล็ก,นครศรีธรรมราช,นบพิตำ,นบพิตำ,8.723341999999999,99.744914
08973,รพ.สต.บ้านเปียน,นครศรีธรรมราช,นบพิตำ,กรุงชิง,8.793265,99.634666
08974,รพ.สต.บ้านหัวทุ่ง,นครศรีธรรมราช,นบพิตำ,กะหรอ,8.6826609,99.81229730000001
08975,รพ.สต.ท่าพุด,นครศรีธรรมราช,นบพิตำ,นาเหรง,8.6491361,99.7778453
09180,รพ.สต.บ้านเกาะพลวย,สุราษฎร์ธานี,เกาะสมุย,อ่างทอง,9.5158685,99.6762203
09468,รพ.สต.บ้านตรับ,สงขลา,จะนะ,จะโหนง,7.016424100000001,100.6617064
09459,รพ.สต.นาหว้า,สงขลา,จะนะ,นาหว้า,6.907069799999999,100.686664
09461,รพ.สต.นาทับ,สงขลา,จะนะ,นาทับ,7.038265099999999,100.6924412
09462,รพ.สต.นาเสมียน,สงขลา,จะนะ,นาทับ,7.036132,100.7112431
07447,รพ.สต.บ้านสระบัว,สุโขทัย,ศรีสำโรง,วังใหญ่,17.1121,99.76972909999999
07009,รพ.สต.บ้านโพธิ์ประสาท,นครสวรรค์,ไพศาลี,โพธิ์ประสาท,15.4131566,100.5582243
07011,รพ.สต.บ้านกระทุ่มทอง,นครสวรรค์,ไพศาลี,วังข่อย,15.6042454,100.749408
07013,รพ.สต.บ้านเขาใหญ่,นครสวรรค์,ไพศาลี,นาขอม,15.6712876,100.8126316
07018,รพ.สต.บ้านยางขาว,นครสวรรค์,พยุหะคีรี,ยางขาว,15.4976039,99.985881
07025,รพ.สต.บ้านสระบัว,นครสวรรค์,พยุหะคีรี,เขากะลา,15.5104239,100.2550175
07324,รพ.สต.บ้านขะเนจื้อ,ตาก,แม่ระมาด,ขะเนจื้อ,17.041266,98.49220369999999
07325,รพ.สต.บ้านแม่ระมาดน้อย,ตาก,แม่ระมาด,ขะเนจื้อ,17.0220639,98.54689119999999
07326,รพ.สต.บ้านคำหวัน,ตาก,แม่ระมาด,แม่ตื่น,17.1450089,98.6765618
07327,รพ.สต.บ้านแสม,ตาก,แม่ระมาด,สามหมื่น,16.9642392,98.6166358
07328,รพ.สต.ท่าสองยาง,ตาก,ท่าสองยาง,ท่าสองยาง,17.5620439,97.9234942
07329,รพ.สต.แม่สอง,ตาก,ท่าสองยาง,แม่สอง,17.4776649,98.1557066
07330,รพ.สต.บ้านแม่ระเมิง,ตาก,ท่าสองยาง,แม่สอง,17.5191884,98.09899829999999
07331,รพ.สต.แม่หละ,ตาก,ท่าสองยาง,แม่หละ,17.1870687,98.37457169999999
08900,รพ.สต.บ้านบางน้อง,นครศรีธรรมราช,ปากพนัง,หูล่อง,8.3874421,100.2295083
08901,รพ.สต.บ้านปลายทราย,นครศรีธรรมราช,ปากพนัง,แหลมตะลุมพุก,8.473053799999999,100.1958325
08903,รพ.สต.บ้านบางไทร,นครศรีธรรมราช,ปากพนัง,บางศาลา,8.2497756,100.1871351
08904,รพ.สต.บ้านบางนาว,นครศรีธรรมราช,ปากพนัง,บางพระ,8.321337999999999,100.217605
08906,รพ.สต.บ้านชายทะเล,นครศรีธรรมราช,ปากพนัง,ปากพนังฝั่งตะวันออก,8.3874421,100.2295083
08908,รพ.สต.บ้านวัดสระ,นครศรีธรรมราช,ปากพนัง,ท่าพยา,8.276897,100.2640482
08909,รพ.สต.บ้านเกาะทัง,นครศรีธรรมราช,ปากพนัง,ท่าพยา,8.276897,100.2640482
08910,รพ.สต.บ้านมะขามเรียง,นครศรีธรรมราช,ปากพนัง,ปากแพรก,8.270878999999999,100.1971875
09877,รพ.สต.บ้านหาดไข่เต่า,พัทลุง,บางแก้ว,นาปะขอ,7.4378449,100.2329449
09880,รพ.สต.บ้านในนิคมฯ บ้านลานข่อย,พัทลุง,ป่าพะยอม,ลานข่อย,7.8872993,99.85533649999999
09882,รพ.สต.บ้านคลองใหญ่,พัทลุง,ป่าพะยอม,เกาะเต่า,7.8265429,99.8689005
09883,รพ.สต.บ้านปากเหมือง,พัทลุง,ป่าพะยอม,เกาะเต่า,7.776598199999999,99.8437289
07156,รพ.สต.บ้านทรงธรรม,กำแพงเพชร,เมืองกำแพงเพชร,ทรงธรรม,16.5218378,99.4228263
07026,รพ.สต.บ้านทรัพย์ไพวัลย์,นครสวรรค์,พยุหะคีรี,เขากะลา,15.5509443,100.3161126
07027,รพ.สต.บ้านสระทะเล,นครสวรรค์,พยุหะคีรี,สระทะเล,15.5119453,100.1591213
07031,รพ.สต.บ้านเกาะเปา,นครสวรรค์,ลาดยาว,วังม้า,15.6673237,99.8655158
09323,รพ.สต.ละอุ่นเหนือ,ระนอง,ละอุ่น,ละอุ่นเหนือ,10.0189276,98.8667302
07696,รพ.สต.วังทับไทร,พิจิตร,สากเหล็ก,วังทับไทร,16.4688383,100.5573451
07833,รพ.สต.หลักด่าน,เพชรบูรณ์,น้ำหนาว,หลักด่าน,16.9424965,101.4566299
07836,รพ.สต.โคกมน,เพชรบูรณ์,น้ำหนาว,โคกมน,16.7219297,101.7497463
07845,รพ.สต.ปานสุขุม,เพชรบูรณ์,เขาค้อ,เขาค้อ,16.6592073,101.0188236
07848,รพ.สต.ป่าคา,เพชรบูรณ์,เขาค้อ,แคมป์สน,16.7779001,101.0153583
07850,รพ.สต.รื่นฤดี,เพชรบูรณ์,เขาค้อ,สะเดาะพง,16.5730098,100.9890761
09887,รพ.สต.บ้านลำกะ,พัทลุง,ศรีนครินทร์,ชุมพล,7.583590900000001,99.97148709999999
07769,รพ.สต.ช้างตะลูด,เพชรบูรณ์,หล่มสัก,ช้างตะลูด,16.5905014,101.3090737
07928,รพ.สต.หนองอ้อ,ราชบุรี,บ้านโป่ง,หนองอ้อ,13.7897623,99.9474875
07785,รพ.สต.วังขอน,เพชรบูรณ์,หล่มเก่า,ตาดกลอย,16.9669538,101.2990392
09325,รพ.สต.บ้านระวิ,ระนอง,ละอุ่น,บางพระเหนือ,9.9771813,98.7371039
09327,รพ.สต.บางแก้วนอก,ระนอง,ละอุ่น,บางแก้ว,10.1755479,98.78116449999999
07463,รพ.สต.นครเดิฐ,สุโขทัย,ศรีนคร,นครเดิฐ,17.4774043,99.95768489999999
08829,รพ.สต.ควนหนองหงษ์,นครศรีธรรมราช,ชะอวด,ควนหนองหงษ์,8.0092985,99.8850586
08830,รพ.สต.บ้านเขาพระทอง,นครศรีธรรมราช,ชะอวด,เขาพระทอง,7.9742159,99.91119239999999
08832,รพ.สต.บ้านนางหลง,นครศรีธรรมราช,ชะอวด,นางหลง,7.9007988,100.0048804
08833,รพ.สต.บ้านพรุบัว,นครศรีธรรมราช,ชะอวด,นางหลง,7.908875600000001,99.9744453
08834,รพ.สต.บ้านตลาดอาทิตย์,นครศรีธรรมราช,ท่าศาลา,กลาย,8.8042742,99.91298450000001
08835,รพ.สต.บ้านดอนใคร,นครศรีธรรมราช,ท่าศาลา,กลาย,8.8042742,99.91298450000001
10200,รพ.สต.ท่ากะบาก,สระแก้ว,เมืองสระแก้ว,ท่าแยก,14.0797362,102.2948557
10202,รพ.สต.ทัพเซียม,สระแก้ว,ตาพระยา,ทัพเสด็จ,14.0793543,102.8662103
10203,รพ.สต.โคกแจง,สระแก้ว,ตาพระยา,ทัพเสด็จ,14.0793543,102.8662103
10209,รพ.สต.คลองหว้า,สระแก้ว,อรัญประเทศ,ทับพริก,13.5095695,102.3177558
08755,รพ.สต.บ้านปลายท่า,นครศรีธรรมราช,เมืองนครศรีธรรมราช,นาทราย,8.479743899999999,99.92909879999999
08759,รพ.สต.บ้านเหมืองหัวทะเล,นครศรีธรรมราช,เมืองนครศรีธรรมราช,นาเคียน,8.462033,99.9125559
06981,รพ.สต.บ้านหนองแอก,นครสวรรค์,ตาคลี,หนองหม้อ,15.1863854,100.3217245
06982,รพ.สต.บ้านดงมหาชัย,นครสวรรค์,ตาคลี,สร้อยทอง,15.1368383,100.4130182
08782,รพ.สต.บ้านพรุกำ,นครศรีธรรมราช,ลานสกา,ลานสกา,8.318875,99.783613
08784,รพ.สต.บ้านมะม่วงทอง,นครศรีธรรมราช,ลานสกา,ท่าดี,8.400664299999999,99.8291198
07354,รพ.สต.บ้านซอโอ,ตาก,พบพระ,ช่องแคบ,16.5044722,98.69994659999999
07359,รพ.สต.บ้านวาเล่ย์,ตาก,พบพระ,วาเล่ย์,16.2986193,98.7115336
10240,รพ.สต.บ้านดอนเสียด,บึงกาฬ,โซ่พิสัย,คำแก้ว,18.166752,103.524141
08505,รพ.สต.บ้านท่าแร้ง,สมุทรสาคร,บ้านแพ้ว,อำแพง,13.58497,100.179054
08512,รพ.สต.บ้านตะวันจาก,สมุทรสงคราม,เมืองสมุทรสงคราม,ลาดใหญ่,13.4654418,100.0264911
07486,รพ.สต.ปากโทก,พิษณุโลก,เมืองพิษณุโลก,ปากโทก,16.884421,100.2544044
07489,รพ.สต.บ้านจอมทอง,พิษณุโลก,เมืองพิษณุโลก,จอมทอง,16.8922099,100.2186983
06992,รพ.สต.บ้านตุ๊กแก,นครสวรรค์,ท่าตะโก,ดอนคา,15.6730053,100.5400586
06995,รพ.สต.บ้านวังใหญ่,นครสวรรค์,ท่าตะโก,วังใหญ่,15.8076882,100.639826
06998,รพ.สต.บ้านคลองบอน,นครสวรรค์,ท่าตะโก,พนมเศษ,15.7725335,100.3394178
07003,รพ.สต.บ้านหนองไผ่,นครสวรรค์,ไพศาลี,สำโรงชัย,15.5339632,100.6153364
07053,รพ.สต.บ้านคลองน้ำโจน,นครสวรรค์,แม่วงก์,แม่วงก์,15.7791896,99.5576541
07056,รพ.สต.บ้านวังซ่าน,นครสวรรค์,แม่วงก์,วังซ่าน,15.8440018,99.64198950000001
07058,รพ.สต.บ้านหนองไผ่,นครสวรรค์,แม่วงก์,เขาชนกัน,15.9107538,99.4206257
07060,รพ.สต.บ้านปางงู,นครสวรรค์,ชุมตาบง,ปางสวรรค์,15.704119,99.55859210000001
07062,รพ.สต.บ้านชุมตาบง,นครสวรรค์,ชุมตาบง,ชุมตาบง,15.631607,99.5515779
06966,รพ.สต.บ้านเขาดิน,นครสวรรค์,เก้าเลี้ยว,เขาดิน,15.824288,100.0709385
06967,รพ.สต.บ้านดงเมืองใต้,นครสวรรค์,เก้าเลี้ยว,เขาดิน,15.8408573,100.023009
06968,รพ.สต.บ้านหนองแพงพวย,นครสวรรค์,เก้าเลี้ยว,หัวดง,15.9299514,100.1155581
06969,รพ.สต.บ้านหัวดง,นครสวรรค์,เก้าเลี้ยว,หัวดง,15.8889402,100.0478368
06970,รพ.สต.บ้านตาคลี,นครสวรรค์,ตาคลี,ตาคลี,15.2563799,100.3500327
07034,รพ.สต.บ้านมาบแก,นครสวรรค์,ลาดยาว,มาบแก,15.662717,99.7872915
07040,รพ.สต.บ้านหนองไร่,นครสวรรค์,ลาดยาว,เนินขี้เหล็ก,15.8610539,99.87947439999999
07041,รพ.สต.บ้านหนองสังข์,นครสวรรค์,ลาดยาว,เนินขี้เหล็ก,15.8749267,99.8934354
14163,รพ.สต.บ้านปางเฟือง,เชียงใหม่,เชียงดาว,ปิงโค้ง,19.4819443,99.0224107
08671,รพ.สต.ห้วยแม่เพรียง,เพชรบุรี,แก่งกระจาน,ห้วยแม่เพรียง,12.7862123,99.5691934
07338,รพ.สต.บ้านปางส่างคำ,ตาก,แม่สอด,พะวอ,16.9005488,98.78116449999999
07341,รพ.สต.บ้านแม่กาษา,ตาก,แม่สอด,แม่กาษา,16.8742456,98.62461090000001
08842,รพ.สต.บ้านโมคลาน,นครศรีธรรมราช,ท่าศาลา,โมคลาน,8.5718836,99.9288272
08844,รพ.สต.ชุมชนสาธิตวลัยลักษณ์พัฒนา,นครศรีธรรมราช,ท่าศาลา,ไทยบุรี,8.648240999999999,99.859354
08850,รพ.สต.บ้านหนองหว้า,นครศรีธรรมราช,ทุ่งสง,ชะมาย,8.162395199999999,99.65693809999999
08851,รพ.สต.บ้านทางข้าม,นครศรีธรรมราช,ทุ่งสง,หนองหงส์,8.2248723,99.659876
08852,รพ.สต.หนองหงส์,นครศรีธรรมราช,ทุ่งสง,หนองหงส์,8.2037978,99.6452714
14208,รพ.สต.บ้านเกาะเรียน ตำบลคลองใหญ่,พัทลุง,ตะโหมด,คลองใหญ่,7.2869797,100.0643384
14210,รพ.สต.บ้านโต๊ะแน,ปัตตานี,กะพ้อ,ตะโละดือรามัน,6.611317,101.5503832
07642,รพ.สต.ห้วยเกตุ,พิจิตร,ตะพานหิน,ห้วยเกตุ,16.2764278,100.4153815
07643,รพ.สต.ไทรโรงโขน,พิจิตร,ตะพานหิน,ไทรโรงโขน,16.1824246,100.4125387
07644,รพ.สต.หนองพะยอม,พิจิตร,ตะพานหิน,หนองพยอม,16.2391979,100.4733789
08856,รพ.สต.บ้านทุ่งส้าน,นครศรีธรรมราช,ทุ่งสง,นาไม้ไผ่,8.1082705,99.61117349999999
09425,รพ.สต.บ้านแก่งกระทั่ง,ชุมพร,สวี,นาสัก,10.2232502,99.0059082
09426,รพ.สต.บ้านไทยพัฒนา,ชุมพร,สวี,นาสัก,10.1472548,98.9547587
06857,รพ.สต.เมืองแปง,แม่ฮ่องสอน,ปาย,เมืองแปง,19.2116149,98.3683277
06859,รพ.สต.สบหาร,แม่ฮ่องสอน,แม่สะเรียง,บ้านกาศ,18.1990948,97.9295952
06863,รพ.สต.น้ำดิบ,แม่ฮ่องสอน,แม่สะเรียง,แม่ยวม,18.1405435,97.9235904
06864,รพ.สต.ห้วยสิงห์,แม่ฮ่องสอน,แม่สะเรียง,แม่ยวม,18.0588961,97.91756219999999
09056,รพ.สต.บ้านห้วยมัด,กระบี่,เหนือคลอง,ห้วยยูง,8.152346999999999,99.0681668
09057,รพ.สต.บ้านห้วยคราม,กระบี่,เหนือคลอง,ห้วยยูง,8.147806600000001,99.0294708
09060,รพ.สต.บางเตย,พังงา,เมืองพังงา,บางเตย,8.4393617,98.5748442
09062,รพ.สต.ตากแดด,พังงา,เมืองพังงา,ตากแดด,8.4581661,98.4865461
07161,รพ.สต.บ้านไร่,กำแพงเพชร,เมืองกำแพงเพชร,เทพนคร,16.3947493,99.5457654
07167,รพ.สต.บ้านน้ำโท้ง,กำแพงเพชร,เมืองกำแพงเพชร,ท่าขุนราม,16.4579758,99.45522
07168,รพ.สต.บ้านคลองแม่ลาย,กำแพงเพชร,เมืองกำแพงเพชร,คลองแม่ลาย,16.4147399,99.4560523
07780,รพ.สต.ห้วยมะยม,เพชรบูรณ์,หล่มเก่า,นาแซง,16.8540456,101.2284973
06871,รพ.สต.แม่เตี๋ย,แม่ฮ่องสอน,แม่ลาน้อย,ท่าผาปุ้ม,18.2960033,97.9167938
06872,รพ.สต.แม่โถ,แม่ฮ่องสอน,แม่ลาน้อย,แม่โถ,18.6216564,98.02513619999999
06873,รพ.สต.ละอูบ,แม่ฮ่องสอน,แม่ลาน้อย,ห้วยห้อม,18.3438118,98.0579499
06874,รพ.สต.บ้านสาม,แม่ฮ่องสอน,แม่ลาน้อย,ห้วยห้อม,18.3833627,98.1272247
06875,รพ.สต.กอกหลวง,แม่ฮ่องสอน,แม่ลาน้อย,แม่นาจาง,18.5193474,98.1393179
06876,รพ.สต.แม่ปาง,แม่ฮ่องสอน,แม่ลาน้อย,สันติคีรี,18.4801016,97.9538378
06877,รพ.สต.บ้านแม่ฮุ ตำบลแม่ลาน้อย,แม่ฮ่องสอน,แม่ลาน้อย,แม่ลาน้อย,18.4188893,98.00834139999999
07047,รพ.สต.บ้านซับสำราญ,นครสวรรค์,ตากฟ้า,สุขสำราญ,15.316642,100.530459
07048,รพ.สต.บ้านหนองสร้อยทอง,นครสวรรค์,ตากฟ้า,หนองพิกุล,15.3705253,100.4621366
09272,รพ.สต.เขานิพันธ์,สุราษฎร์ธานี,เวียงสระ,เขานิพันธ์,8.578614,99.37840899999999
09273,รพ.สต.บ้านไสขรบ,สุราษฎร์ธานี,พระแสง,อิปัน,8.622645,99.251249
09277,รพ.สต.บางสวรรค์,สุราษฎร์ธานี,พระแสง,บางสวรรค์,8.619038,98.9737239
09278,รพ.สต.ไทรขึง,สุราษฎร์ธานี,พระแสง,ไทรขึง,8.563259799999999,99.11241389999999
09282,รพ.สต.บ้านบางกำยาน,สุราษฎร์ธานี,พระแสง,สินเจริญ,8.4086512,99.22313869999999
07782,รพ.สต.ห้วยหอย,เพชรบูรณ์,หล่มเก่า,วังบาล,16.953437,101.1560732
07784,รพ.สต.นาเกาะ,เพชรบูรณ์,หล่มเก่า,นาเกาะ,16.8486845,101.2009136
09143,รพ.สต.มะขามเตี้ย,สุราษฎร์ธานี,เมืองสุราษฎร์ธานี,มะขามเตี้ย,9.1030787,99.33401579999999
07797,รพ.สต.ยางจ่า,เพชรบูรณ์,วิเชียรบุรี,ภูน้ำหยด,15.5294846,100.9383192
07802,รพ.สต.ซับน้อย,เพชรบูรณ์,วิเชียรบุรี,ซับน้อย,15.6746645,100.8677256
07805,รพ.สต.เกาะแก้ว ตำบลคลองกระจัง,เพชรบูรณ์,ศรีเทพ,คลองกระจัง,15.3936506,101.1136153
07806,รพ.สต.วังขอน,เพชรบูรณ์,ศรีเทพ,คลองกระจัง,15.3382768,101.0089648
07807,รพ.สต.นาสนุ่น,เพชรบูรณ์,ศรีเทพ,นาสนุ่น,15.522272,101.1390878
07808,รพ.สต.นาน้ำโครม,เพชรบูรณ์,ศรีเทพ,นาสนุ่น,15.4931089,101.1447493
07809,รพ.สต.โคกสะอาด,เพชรบูรณ์,ศรีเทพ,โคกสะอาด,15.4761988,101.0609555
13911,รพ.สต.บ้านหนองบัวบาน,อุดรธานี,หนองวัวซอ,หนองบัวบาน,17.3104999,102.6088557
13913,รพ.สต.บ้านนาเหล่า,อุดรธานี,โนนสะอาด,หนองกุงศรี,17.0656845,102.7861091
13914,รพ.สต.บ้านดงบาก,อุดรธานี,หนองหาน,หนองไผ่,17.3167596,103.0500522
10085,รพ.สต.บ้านลือมุ,ยะลา,กรงปินัง,กรงปินัง,6.4009635,101.2759058
10086,รพ.สต.บ้านดุซงกูจิ,ยะลา,กรงปินัง,สะเอะ,6.4085126,101.2495453
14094,รพ.สต.บ้านดอนทราย,ชุมพร,สวี,วิสัยใต้,10.368794,99.02394439999999
06902,รพ.สต.บ้านพระนอน,นครสวรรค์,เมืองนครสวรรค์,พระนอน,15.7060753,100.1114744
06903,รพ.สต.บ้านหัวคลัก,นครสวรรค์,เมืองนครสวรรค์,พระนอน,15.6349786,100.2750364
06907,รพ.สต.บ้านหนองตะคลอง,นครสวรรค์,เมืองนครสวรรค์,หนองกระโดน,15.805592,99.95350619999999
13945,รพ.สต.บ้านฝาง,ร้อยเอ็ด,เกษตรวิสัย,บ้านฝาง,15.7033559,103.4396172
13947,รพ.สต.บ้านราชธานี,ร้อยเอ็ด,ธวัชบุรี,ราชธานี,15.9666031,103.7106947
14084,รพ.สต.บ้านสี่แยกสวนป่า,นครศรีธรรมราช,บางขัน,วังหิน,8.027211,99.549982
10091,รพ.สต.บางปอ,นราธิวาส,เมืองนราธิวาส,บางปอ,6.320633,101.8007055
10094,รพ.สต.กะลุวอ,นราธิวาส,เมืองนราธิวาส,กะลุวอ,6.359025,101.8473965
09092,รพ.สต.บ้านบางใหญ่,พังงา,ตะกั่วป่า,บางนายสี,8.8927205,98.4065442
09093,รพ.สต.บ้านบางนายสี,พังงา,ตะกั่วป่า,บางนายสี,8.8977691,98.3289276
09096,รพ.สต.ตำตัว,พังงา,ตะกั่วป่า,ตำตัว,8.7765107,98.3636131
09097,รพ.สต.โคกเคียน,พังงา,ตะกั่วป่า,โคกเคียน,8.819537400000002,98.38681659999999
09100,รพ.สต.บ้านเกาะคอเขา,พังงา,ตะกั่วป่า,เกาะคอเขา,8.8762451,98.2709623
09102,รพ.สต.บางวัน,พังงา,คุระบุรี,บางวัน,8.992844800000002,98.42275479999999
09105,รพ.สต.เกาะพระทอง,พังงา,คุระบุรี,เกาะพระทอง,9.1509575,98.2958929
06924,รพ.สต.บ้านลาด,นครสวรรค์,ชุมแสง,บางเคียน,15.8424777,100.2081985
06928,รพ.สต.บ้านท่าจันทร์,นครสวรรค์,ชุมแสง,โคกหม้อ,15.8272299,100.2319757
09054,รพ.สต.บ้านทุ่งประสาน,กระบี่,เหนือคลอง,ปกาสัย,8.017671000000002,99.062684
11989,รพ.สต.บ้านชะลาด,ตาก,เมืองตาก,ป่ามะม่วง,16.8702362,99.07369639999999
10149,รพ.สต.บ้านตืองอ,นราธิวาส,ศรีสาคร,ศรีบรรพต,6.1427979,101.5816534
10151,รพ.สต.บ้านสามแยก,นราธิวาส,แว้ง,กายูคละ,5.968113900000001,101.8945211
10157,รพ.สต.บ้านควนกาแม,นราธิวาส,แว้ง,แม่ดง,5.88977,101.8749152
10159,รพ.สต.บ้านตอแล,นราธิวาส,แว้ง,เอราวัณ,5.966624700000001,101.8563841
10161,รพ.สต.บ้านจุฬาภรณ์พัฒนา,นราธิวาส,สุคิริน,สุคิริน,5.9532298,101.6954435
10162,รพ.สต.บ้านกะลูบี,นราธิวาส,สุคิริน,มาโมง,5.884251,101.769474
10163,รพ.สต.เกียร์,นราธิวาส,สุคิริน,เกียร์,5.9927847,101.7865654
10164,รพ.สต.เฉลิมพระเกียรติ 60 พรรษานวมินทราชินี,นราธิวาส,สุคิริน,ภูเขาทอง,5.841447,101.729965
10165,รพ.สต.บ้านภูเขาทอง,นราธิวาส,สุคิริน,ภูเขาทอง,5.802753399999999,101.7435989
07546,รพ.สต.โคกสลุด,พิษณุโลก,บางกระทุ่ม,โคกสลุด,16.5819828,100.2380375
13824,รพ.สต.บ้านทุ่งตะลุมพุก,ปราจีนบุรี,เมืองปราจีนบุรี,โนนห้อม,14.1015632,101.4778195
11914,รพ.สต.บ้านเขาปฐวี,อุทัยธานี,ทัพทัน,ทัพทัน,15.4845572,99.7547232
11749,รพ.สต.บ้านดงจาน,มหาสารคาม,ยางสีสุราช,แวงดง,15.6469986,103.0590687
14041,รพ.สต.บ้านโพธิ์เอน,กำแพงเพชร,บึงสามัคคี,เทพนิมิต,16.2062013,99.90778410000001
14044,รพ.สต.บ้านห้วยนกกก,ตาก,ท่าสองยาง,แม่หละ,17.1901245,98.32900230000001
10121,รพ.สต.บ้านจุฬาภรณ์พัฒนา,นราธิวาส,ระแงะ,บองอ,6.2510429,101.7354175
10122,รพ.สต.บองอ,นราธิวาส,ระแงะ,บองอ,6.1942998,101.7403554
09863,รพ.สต.บ้านท่าข้าม,พัทลุง,ศรีบรรพต,ตะแพน,7.6818863,99.9009074
11780,รพ.สต.บ้านแม่คาวหลวง,เชียงราย,พาน,สันกลาง,19.5900783,99.68704590000002
11798,รพ.สต.บ้านแหลมโพธิ์,พิษณุโลก,เมืองพิษณุโลก,บ้านกร่าง,16.8391702,100.1804428
13994,รพ.สต.บ้านท่าต้นกวาว,เชียงใหม่,สารภี,ชมภู,18.7200616,99.07064369999999
10243,รพ.สต.บ้านท่าเชียงเครือ,บึงกาฬ,เซกา,ป่งไฮ,18.0539613,103.7901982
10254,รพ.สต.บ้านห้วยม่วงฝั่งซ้าย,เชียงใหม่,จอมทอง,แม่สอย,18.2470221,98.7176404
10280,รพ.สต.บ้านแกน้อย,เชียงใหม่,เชียงดาว,เมืองนะ,19.6847841,98.7957234
10313,รพ.สต.บ้านแม่งูด,เชียงใหม่,ฮอด,นาคอเรือ,18.036259,98.5586391
07589,รพ.สต.ท่าหมื่นราม,พิษณุโลก,วังทอง,ท่าหมื่นราม,16.674281,100.507717
07590,รพ.สต.บ้านหนองเตาอิฐ,พิษณุโลก,วังทอง,ท่าหมื่นราม,16.7134022,100.4744233
07592,รพ.สต.บ้านน้ำพรม,พิษณุโลก,วังทอง,วังนกแอ่น,16.8393611,100.7506121
07594,รพ.สต.หนองพระ,พิษณุโลก,วังทอง,หนองพระ,16.676213,100.437271
09925,รพ.สต.ยาบี,ปัตตานี,หนองจิก,ยาบี,6.770798699999999,101.24985
09082,รพ.สต.กระโสม,พังงา,ตะกั่วทุ่ง,กระโสม,8.3910915,98.4522303
09084,รพ.สต.บ้านเกาะกลาง,พังงา,ตะกั่วทุ่ง,กะไหล,8.271410600000001,98.44407110000002
10124,รพ.สต.บ้านกาลีซา,นราธิวาส,ระแงะ,กาลิซา,6.238318,101.6772484
10125,รพ.สต.กาลิซา,นราธิวาส,ระแงะ,กาลิซา,6.2246503,101.6499125
10128,รพ.สต.บ้านซีโป,นราธิวาส,ระแงะ,เฉลิม,6.287234199999999,101.6499125
10129,รพ.สต.เฉลิม,นราธิวาส,ระแงะ,เฉลิม,6.255170499999999,101.6840589
10131,รพ.สต.บ้านนาโอน,นราธิวาส,รือเสาะ,รือเสาะ,6.339077100000001,101.5023925
10132,รพ.สต.บ้านบือและห์,นราธิวาส,รือเสาะ,สาวอ,6.437143,101.490712
08212,รพ.สต.นิคมกระเสียว,สุพรรณบุรี,ด่านช้าง,นิคมกระเสียว,14.8445663,99.5562219
09956,รพ.สต.ปะเสยะวอ,ปัตตานี,สายบุรี,ปะเสยะวอ,6.7281986,101.6044014
09088,รพ.สต.บ้านทองหลาง,พังงา,ตะกั่วทุ่ง,หล่อยูง,8.206632899999999,98.3737912
11688,รพ.สต.หัวปลวก,สระบุรี,เสาไห้,หัวปลวก,14.600632,100.833185
11698,รพ.สต.บ้านโค้งวันเพ็ญ,ชลบุรี,สัตหีบ,บางเสร่,12.7484547,100.9387385
11511,เทศบาลตำบลบางม่วง,นนทบุรี,บางใหญ่,บางม่วง,13.845003,100.4127288
06932,รพ.สต.บ้านดอนสนวน,นครสวรรค์,ชุมแสง,ทับกฤชใต้,15.7713203,100.2334114
11724,รพ.สต.บ้านคลองนครเนื่องเขต,ฉะเชิงเทรา,เมืองฉะเชิงเทรา,คลองนครเนื่องเขต,13.7705123,101.0146187
13955,รพ.สต.บ้านน้ำคำ,ร้อยเอ็ด,อาจสามารถ,โพนเมือง,15.9077345,103.8985734
09965,รพ.สต.บ้านเจาะโบ,ปัตตานี,สายบุรี,แป้น,6.7285417,101.6023213
09978,รพ.สต.ตาลีอายร์,ปัตตานี,ยะหริ่ง,ตาลีอายร์,6.800712099999999,101.4079709
10420,รพ.สต.บ้านน้ำปุก,พะเยา,ปง,ขุนควร,19.1985403,100.459604
10426,รพ.สต.พนาสวรรค์,เชียงราย,เมืองเชียงราย,แม่ยาว,20.0232802,99.6034959
10439,รพ.สต.บ้านเล่าฝู,เชียงราย,แม่จัน,ป่าตึง,20.1090436,99.6904756
14045,รพ.สต.บ้านร่มเกล้าสหมิตร,ตาก,พบพระ,คีรีราษฎร์,16.4755051,98.8355022
14046,รพ.สต.บ้านเปิ่งเคลิ่ง,ตาก,อุ้มผาง,แม่จัน,15.797431,98.584975
09900,รพ.สต.บาราเฮาะ,ปัตตานี,เมืองปัตตานี,บาราเฮาะ,6.8178655,101.2821225
09826,รพ.สต.บ้านท่าเชียด,พัทลุง,ตะโหมด,คลองใหญ่,7.2638436,100.0824515
10363,รพ.สต.สุมข้าม,อุตรดิตถ์,บ้านโคก,นาขุม,17.9302678,100.997658
10133,รพ.สต.บ้านสาวอ,นราธิวาส,รือเสาะ,สาวอ,6.4353706,101.5018014
10140,รพ.สต.ลาโละ,นราธิวาส,รือเสาะ,ลาโละ,6.3514249,101.5816534
10141,รพ.สต.บ้านโคกสะตอ,นราธิวาส,รือเสาะ,โคกสะตอ,6.2709039,101.4452717
10142,รพ.สต.บ้านตายา,นราธิวาส,รือเสาะ,สุวารี,6.4711892,101.5583528
10143,รพ.สต.บ้านยือราแป,นราธิวาส,รือเสาะ,สุวารี,6.446743199999999,101.6055117
10144,รพ.สต.บ้านไอร์แยง,นราธิวาส,ศรีสาคร,ศรีสาคร,6.1493657,101.5191225
10145,รพ.สต.กาลูบี ตำบลซากอ,นราธิวาส,ศรีสาคร,ซากอ,6.2315459,101.5148604
09928,รพ.สต.บ้านท่าทราย,ปัตตานี,ปะนาเระ,ปะนาเระ,6.8670215,101.4661336
09929,รพ.สต.บ้านนอก,ปัตตานี,ปะนาเระ,บ้านนอก,6.8211058,101.4682087
14054,รพ.สต.บ้านหนองแหน,สุโขทัย,ศรีนคร,นครเดิฐ,17.4427482,99.98487999999999
08188,รพ.สต.ทุ่งคลี,สุพรรณบุรี,เดิมบางนางบวช,ทุ่งคลี,14.8699949,100.1745234
06920,รพ.สต.บ้านชุมแสง,นครสวรรค์,ชุมแสง,พิกุล,15.902881,100.302006
06922,รพ.สต.บ้านท่ากร่าง,นครสวรรค์,ชุมแสง,ท่าไม้,15.902881,100.302006
06923,รพ.สต.บ้านหนองขอน,นครสวรรค์,ชุมแสง,ท่าไม้,15.9230725,100.2291725
07580,รพ.สต.บ้านสุพรรณพนมทอง,พิษณุโลก,วังทอง,พันชาลี,16.620669,100.53561
09931,รพ.สต.ควน,ปัตตานี,ปะนาเระ,ควน,6.7601891,101.4842347
09932,รพ.สต.ท่าน้ำ,ปัตตานี,ปะนาเระ,ท่าน้ำ,6.7670416,101.5191225
09933,รพ.สต.บ้านสุเหร่า,ปัตตานี,ปะนาเระ,ท่าน้ำ,6.7670416,101.5191225
09934,รพ.สต.คอกกระบือ,ปัตตานี,ปะนาเระ,คอกกระบือ,6.7918145,101.5233868
09936,รพ.สต.บางมะรวด,ปัตตานี,ปะนาเระ,บ้านกลาง,6.860449699999999,101.5205432
09937,รพ.สต.ศาลาหยุดพระ,ปัตตานี,ปะนาเระ,บ้านกลาง,6.830198999999999,101.5191225
09938,รพ.สต.บ้านน้ำบ่อ,ปัตตานี,ปะนาเระ,บ้านน้ำบ่อ,6.817899799999999,101.5700475
09939,รพ.สต.บ้านเตราะหัก,ปัตตานี,ปะนาเระ,บ้านน้ำบ่อ,6.817899799999999,101.5700475
09988,รพ.สต.บ้านปาตาบูดี,ปัตตานี,ยะหริ่ง,แหลมโพธิ์,6.9436643,101.294897
09068,รพ.สต.ป่ากอ,พังงา,เมืองพังงา,ป่ากอ,8.4912535,98.4513272
09080,รพ.สต.บ้านบางทราย,พังงา,ตะกั่วทุ่ง,ถ้ำ,8.3864038,98.39923449999999
09081,รพ.สต.ถ้ำ,พังงา,ตะกั่วทุ่ง,ถ้ำ,8.4052384,98.40745729999999
09983,รพ.สต.บาโลย,ปัตตานี,ยะหริ่ง,บาโลย,6.779456499999999,101.4395931
09984,รพ.สต.สาบัน,ปัตตานี,ยะหริ่ง,สาบัน,6.8188721,101.4424324
10119,รพ.สต.บ้านตอหลัง,นราธิวาส,ระแงะ,ตันหยงลิมอ,6.2996683,101.7922632
09998,รพ.สต.กระโด,ปัตตานี,ยะรัง,กระโด,6.719516199999999,101.3034028
13963,รพ.สต.บ้านดงเมือง,กาฬสินธุ์,เมืองกาฬสินธุ์,ลำพาน,16.4661471,103.4800805
13979,รพ.สต.บ้านทุ่งมน,นครพนม,เมืองนครพนม,คำเตย,17.1809632,104.6817888
13981,รพ.สต.สร้างติ่ว,นครพนม,นาแก,นาแก,16.8970553,104.5072722
10148,รพ.สต.บ้านป่าไผ่,นราธิวาส,ศรีสาคร,กาหลง,6.2422631,101.4424324
09842,รพ.สต.บ้านหัวควน,พัทลุง,ปากพะยูน,ดอนประดู่,7.3046395,100.3391408
09846,รพ.สต.บ้านเกาะนางคำ,พัทลุง,ปากพะยูน,เกาะนางคำ,7.369851000000001,100.394171
09848,รพ.สต.บ้านแหลมกรวด,พัทลุง,ปากพะยูน,เกาะหมาก,7.482545999999999,100.345749
09850,รพ.สต.บ้านฝาละมี,พัทลุง,ปากพะยูน,ฝาละมี,7.320637199999999,100.2871721
09859,รพ.สต.บ้านโหล๊ะเร็ด,พัทลุง,ศรีบรรพต,เขาย่า,7.756479199999998,99.8915282
05617,รพ.สต.บ้านสุขเกษม,นครพนม,เมืองนครพนม,โพธิ์ตาก,17.3430573,104.7107252
06271,รพ.สต.ถ้ำฉลอง,อุตรดิตถ์,เมืองอุตรดิตถ์,ถ้ำฉลอง,17.606986,100.3594498
09025,รพ.สต.บ้านนาเหนือ,กระบี่,อ่าวลึก,นาเหนือ,8.6195931,98.7566823
06282,รพ.สต.บ้านท่าช้าง,อุตรดิตถ์,ท่าปลา,จริม,17.7945731,100.3020098
06283,รพ.สต.บ้านปางหมิ่น,อุตรดิตถ์,ท่าปลา,น้ำหมัน,17.8244211,100.292726
05865,รพ.สต.บ้านร่ำเปิง,เชียงใหม่,แม่แตง,ขี้เหล็ก,19.0592384,98.94197840000001
05723,รพ.สต.บ้านดอนปอ,นครพนม,นาหว้า,เหล่าพัฒนา,17.5838915,104.0682253
05727,รพ.สต.โพนตูม,นครพนม,โพนสวรรค์,นาหัวบ่อ,17.5208302,104.3578265
05728,รพ.สต.บ้านดอนยาง,นครพนม,โพนสวรรค์,นาขมิ้น,17.52367,104.5183979
05730,รพ.สต.บ้านโพนบก,นครพนม,โพนสวรรค์,โพนบก,17.4798331,104.4957622
06910,รพ.สต.บ้านสันพิง,นครสวรรค์,เมืองนครสวรรค์,บึงเสนาท,15.7163793,100.1482559
13916,รพ.สต.บ้านห้วยผึ้ง,อุดรธานี,ศรีธาตุ,บ้านโปร่ง,16.9679578,103.1012848
13917,รพ.สต.บ้านนาเรียง,อุดรธานี,ศรีธาตุ,ตาดทอง,17.0561912,103.1214547
09026,รพ.สต.บ้านบางเจริญ,กระบี่,อ่าวลึก,นาเหนือ,8.5499562,98.7301712
09027,รพ.สต.บ้านหนองหลุมพอ,กระบี่,อ่าวลึก,คลองหิน,8.305314,98.77943189999999
09029,รพ.สต.บ้านน้ำจาน,กระบี่,อ่าวลึก,อ่าวลึกเหนือ,8.4037934,98.79894739999999
09030,รพ.สต.บ้านเขาล่อม,กระบี่,อ่าวลึก,เขาใหญ่,8.444020199999999,98.68470289999999
09031,รพ.สต.บ้านคลองยา,กระบี่,อ่าวลึก,คลองยา,8.3914341,98.8675682
09033,รพ.สต.บ้านกลาง,กระบี่,อ่าวลึก,บ้านกลาง,8.3390462,98.76674109999999
09035,รพ.สต.บ้านทะเลหอย,กระบี่,ปลายพระยา,ปลายพระยา,8.6386389,98.84839339999999
09037,รพ.สต.บ้านตัวอย่าง,กระบี่,ปลายพระยา,เขาเขน,8.5491669,98.8209219
09042,รพ.สต.บ้านเสม็ดจวน,กระบี่,ลำทับ,ดินอุดม,8.1559781,99.3073378
09045,รพ.สต.บ้านเกาะจำ,กระบี่,เหนือคลอง,เกาะศรีบอยา,7.805994800000001,98.9734733
09046,รพ.สต.บ้านเกาะศรีบอยา,กระบี่,เหนือคลอง,เกาะศรีบอยา,7.8471639,98.9631789
09047,รพ.สต.บ้านคลองขนาน,กระบี่,เหนือคลอง,คลองขนาน,8.015514099999999,99.01198680000002
09048,รพ.สต.บ้านแหลมกรวด,กระบี่,เหนือคลอง,คลองขนาน,7.891119199999999,99.0261544
09050,รพ.สต.บ้านโคกยาง,กระบี่,เหนือคลอง,โคกยาง,8.0776325,99.0705711
09051,รพ.สต.บ้านบางผึ้ง,กระบี่,เหนือคลอง,โคกยาง,8.0458585,99.07963629999999
05740,รพ.สต.บ้านกุดโง้ง,มุกดาหาร,เมืองมุกดาหาร,มุกดาหาร,16.562793,104.6389243
05741,รพ.สต.บ้านโคก,มุกดาหาร,เมืองมุกดาหาร,บ้านโคก,16.6286637,104.5322854
05745,รพ.สต.บ้านโนนตูม,มุกดาหาร,เมืองมุกดาหาร,ผึ่งแดด,16.6126106,104.4884871
05750,รพ.สต.บ้านท่าไค้-นาแล,มุกดาหาร,เมืองมุกดาหาร,นาสีนวน,16.44237,104.839122
05751,รพ.สต.บ้านคำป่าหลาย(หมู่1),มุกดาหาร,เมืองมุกดาหาร,คำป่าหลาย,16.7303186,104.6643064
14067,รพ.สต.ปากช่อง,เพชรบูรณ์,หล่มสัก,ปากช่อง,16.724692,101.2903415
14071,รพ.สต.เกษมสุข,เพชรบูรณ์,หนองไผ่,เพชรละคร,15.8978024,101.1447493
14080,รพ.สต.บ้านบางศาลา,นครศรีธรรมราช,ปากพนัง,บางศาลา,8.253696,100.1900329
14082,รพ.สต.บ้านเขาหัวช้าง,นครศรีธรรมราช,ขนอม,ควนทอง,9.167607199999999,99.79017809999999
10397,รพ.สต.บ้านผักเฮือก,น่าน,บ่อเกลือ,บ่อเกลือใต้,19.0814525,101.1539129
09064,รพ.สต.ทุ่งคาโงก,พังงา,เมืองพังงา,ทุ่งคาโงก,8.5565365,98.4513272
14103,รพ.สต.บ้านทุ่งหลวง,ตรัง,วังวิเศษ,วังมะปราง,7.6306018,99.3767701
14106,รพ.สต.บ้านโคกโตนด,ปัตตานี,หนองจิก,คอลอตันหยง,6.7341972,101.2103808
06884,รพ.สต.สบเมย,แม่ฮ่องสอน,สบเมย,แม่สามแลบ,17.8285558,97.69751409999999
14114,รพ.สต.บ้านสะโล,นราธิวาส,ระแงะ,มะรือโบตก,6.3153776,101.6726318
14115,รพ.สต.บ้านบูกิ๊ตจือแร,นราธิวาส,รือเสาะ,รือเสาะ,6.3682802,101.5416466
14116,รพ.สต.บ้านบลูกาฮีแล,นราธิวาส,รือเสาะ,บาตง,6.395321399999999,101.5185096
14119,รพ.สต.บ้านน้ำตก,นราธิวาส,สุคิริน,สุคิริน,5.8840166,101.6975162
13929,รพ.สต.ห้วยสีเสียด,เลย,ภูหลวง,ห้วยสีเสียด,17.1470567,101.7409946
10068,รพ.สต.บ้านเก๊ะรอ,ยะลา,รามัน,เกะรอ,6.540225,101.4955749
10070,รพ.สต.บ้านจารังตาดง,ยะลา,รามัน,ท่าธง,6.5865388,101.4878714
09670,รพ.สต.ควนธานี,ตรัง,กันตัง,ควนธานี,7.527198100000001,99.5668481
08982,รพ.สต.บ้านโคกกระถิน,นครศรีธรรมราช,เฉลิมพระเกียรติ,เชียรเขา,8.1718162,100.0695367
08987,รพ.สต.บ้านโคกคราม,นครศรีธรรมราช,เฉลิมพระเกียรติ,ทางพูน,8.240106599999999,99.9433629
11466,สถานพยาบาลทัณฑสถานหญิงกลาง,กรุงเทพฯ,เขตจตุจักร,ลาดยาว,13.8450581,100.5569491
14218,รพ.สต.บ้านคลองปัญญา,กระบี่,ปลายพระยา,เขาเขน,8.585045,98.82289
14238,รพ.สต.บ้านแม่เตี๊ยะ,เชียงใหม่,จอมทอง,ดอยแก้ว,18.4033901,98.6515057
14239,รพ.สต.บ้านขุนกลาง,เชียงใหม่,จอมทอง,บ้านหลวง,18.5407346,98.5238605
14252,รพ.สต.บ้านกุดตากล้า,อุบลราชธานี,เขื่องใน,สร้างถ่อ,15.3642156,104.51419
14256,รพ.สต.ใหม่เจริญ,อุบลราชธานี,ตระการพืชผล,นาสะไม,15.6731563,104.9230257
10583,สสช.บ้านเคลอะเดอคี,ตาก,ท่าสองยาง,แม่สอง,17.6238662,98.3151207
10584,สสช.บ้านวะโดรโกร,ตาก,ท่าสองยาง,แม่สอง,17.5272676,98.16572699999999
10585,สสช.บ้านทีโบะคี หมู่ที่,ตาก,ท่าสองยาง,แม่สอง,17.6238662,98.3151207
10587,รพ.สต.บ้านกาหม่าผาโด้,ตาก,ท่าสองยาง,แม่หละ,17.1748914,98.385532
10588,สสช.บ้านทีจือหล่อคี,ตาก,ท่าสองยาง,แม่หละ,17.2365499,98.3827917
10590,สสช.บ้านแม่สะเปา,ตาก,ท่าสองยาง,แม่วะหลวง,17.8226057,97.77013889999999
10591,สสช.บ้านเกร้คี,ตาก,ท่าสองยาง,แม่วะหลวง,17.5873843,98.0574299
10599,รพ.สต.บ้านยะพอ,ตาก,พบพระ,วาเล่ย์,16.3398151,98.73454480000001
14999,รพ.สต.เมืองชุม,เชียงราย,เวียงชัย,เมืองชุม,19.8949689,99.9570301
15113,ศสช.ศูนย์สุขภาพชุมชนเมือง 2 (นาทุ่ง),ชุมพร,เมืองชุมพร,บางหมาก,10.4754727,99.1949667
15119,สถานพยาบาลทัณฑสถานบำบัดพิเศษกลาง,กรุงเทพฯ,เขตจตุจักร,ลาดยาว,13.8459583,100.55659
15120,สถานพยาบาลเรือนจำพิเศษธนบุรี,กรุงเทพฯ,เขตบางบอน,บางบอน,13.6458446,100.3858696
15122,สถานพยาบาลทัณฑสถานหญิงธนบุรี,กรุงเทพฯ,เขตบางบอน,บางบอน,13.6481158,100.3860804
09607,รพ.สต.บ้านควน ตำบลบ้านควน,สตูล,เมืองสตูล,บ้านควน,6.7016621,100.0610105
09629,รพ.สต.อุไดเจริญ,สตูล,ควนกาหลง,อุใดเจริญ,6.913372100000001,99.9353318
09630,รพ.สต.แป-ระ,สตูล,ท่าแพ,แป-ระ,6.8498455,99.9353318
15133,รพ.สต.บ้านหนองโก,นครสวรรค์,ชุมแสง,หนองกระเจา,15.9188848,100.4368463
15138, เมืองสมุทรบางปู คลินิกเวชกรรม,สมุทรปราการ,เมืองสมุทรปราการ,บางปูใหม่,13.5639532,100.67146
09730,รพ.สต.หนองช้างแล่น,ตรัง,ห้วยยอด,หนองช้างแล่น,7.836918000000001,99.580197
10013,รพ.สต.บ้านต้นโหนด,ปัตตานี,แม่ลาน,ป่าไร่,6.6719722,101.1985495
09671,รพ.สต.บางหมาก,ตรัง,กันตัง,บางหมาก,7.4744449,99.55587589999999
09674,รพ.สต.วังวน,ตรัง,กันตัง,วังวน,7.365602099999999,99.55443179999999
14005,รพ.สต.บ้านหลวงป่ายาง,อุตรดิตถ์,ตรอน,น้ำอ่าง,17.4648664,100.2039477
14007,รพ.สต.บ้านคุ้ม,อุตรดิตถ์,ลับแล,ชัยจุมพล,17.6476374,100.034538
10166,รพ.สต.ร่มเกล้าพยาบาล,นราธิวาส,สุคิริน,ภูเขาทอง,5.8008023,101.7126251
10167,รพ.สต.บ้านร่มไทร,นราธิวาส,สุคิริน,ร่มไทร,6.0353141,101.7409946
10169,รพ.สต.มูโนะ,นราธิวาส,สุไหงโกลก,มูโนะ,6.070153100000001,102.0296186
15006,รพ.สต.บ้านโคกม่วง,ขอนแก่น,ชุมแพ,ขัวเรียง,16.5729514,102.2406433
09636,รพ.สต.บ้านในเมือง,สตูล,ละงู,ละงู,6.9269867,99.79017809999999
09637,รพ.สต.เขาขาว,สตูล,ละงู,เขาขาว,6.9139556,99.8240304
09643,รพ.สต.บ้านนาทอน,สตูล,ทุ่งหว้า,นาทอน,7.070609999999999,99.7408
09645,รพ.สต.ขอนคลาน,สตูล,ทุ่งหว้า,ขอนคลาน,6.9981161,99.68426029999999
10605,รพ.สต.บ้านหม่องกั๊วะ,ตาก,อุ้มผาง,แม่จัน,15.7038189,98.68347519999999
09678,รพ.สต.คลองลุ,ตรัง,กันตัง,คลองลุ,7.476367900000001,99.4894972
09681,รพ.สต.บ่อน้ำร้อน,ตรัง,กันตัง,บ่อน้ำร้อน,7.4292325,99.4967497
09682,รพ.สต.บางสัก,ตรัง,กันตัง,บางสัก,7.402604999999999,99.431883
09683,รพ.สต.บ้านนาเกลือใต้,ตรัง,กันตัง,นาเกลือ,7.34183,99.47189999999999
09687,รพ.สต.เกาะลิบง,ตรัง,กันตัง,เกาะลิบง,7.230652399999999,99.39209230000002
09689,รพ.สต.บ้านควนโพธิ์,ตรัง,ย่านตาขาว,ย่านตาขาว,7.415187,99.680798
09691,รพ.สต.บ้านทุ่งเกาะญวน,ตรัง,ย่านตาขาว,หนองบ่อ,7.434319999999999,99.727479
14847,รพ.สต.บ้านคำเมย,อุดรธานี,ศรีธาตุ,หัวนาคำ,17.0809383,103.2876064
10541,รพ.สต.แม่สามแลบ,แม่ฮ่องสอน,สบเมย,แม่สามแลบ,17.99560002823952,97.79875756914934
10557,รพ.สต.บ้านคลองปลาสร้อย,กำแพงเพชร,ปางศิลาทอง,ปางตาไว,16.0409107,99.2907736
14849,รพ.สต.บ้านดงพัฒนา,อุดรธานี,น้ำโสม,นางัว,17.727499,102.2334017
14277,รพ.สต.ดงติ้ว,นครพนม,เมืองนครพนม,บ้านกลาง,17.1565148,104.7658848
14286,รพ.สต.บ้านโพธิ์น้อย,ศรีสะเกษ,ขุนหาญ,กระหวัน,14.6569238,104.3899662
14864,รพ.สต.บ้านโนนสวรรค์,หนองบัวลำภู,นากลาง,อุทัยสวรรค์,17.1979276,102.1611129
14868,รพ.สต.บ้านทุ่งโพธิ์,ชัยนาท,เนินขาม,กะบกเตี้ย,15.002453,99.785693
14877,รพ.สต.บ้านป่ายางมนต์,เชียงราย,เมืองเชียงราย,รอบเวียง,19.9141744,99.8765397
09694,รพ.สต.บ้านทอนพลา,ตรัง,ย่านตาขาว,นาชุมเห็ด,7.442092199999999,99.7608075
10658,รพ.สต.บ้านกวาลอซีรา,นราธิวาส,สุไหงโกลก,ปาเสมัส,6.0549538,102.0040785
10571,รพ.สต.บ้านแม่เหว่ย,ตาก,ท่าสองยาง,ท่าสองยาง,17.6956822,97.88761790000001
10574,สสช.บ้านแม่สองน้อย,ตาก,ท่าสองยาง,แม่อุสุ,17.3907393,98.1283942
10576,สสช.บ้านมอทีทะ,ตาก,ท่าสองยาง,แม่อุสุ,17.361432,98.27052979999999
10580,สสช.บ้านทีคุคี,ตาก,ท่าสองยาง,แม่สอง,17.6238662,98.3151207
10582,สสช.บ้านตะพิเดอ,ตาก,ท่าสองยาง,แม่สอง,17.4515519,98.2082415
06853,รพ.สต.แม่ปิง,แม่ฮ่องสอน,ปาย,แม่ฮี้,19.2715692,98.4568128
14882,รพ.สต.บ้านวังยาว,ขอนแก่น,ชุมแพ,นาหนองทุ่ม,16.705753,101.950504
14889,รพ.สต.บ้านควนนกหว้า,กระบี่,เหนือคลอง,โคกยาง,8.1199259,99.0899358
12472,สถานีกาชาดสิรินธร (สถานีกาชาดที่ 12 ทุ่งสง),นครศรีธรรมราช,ทุ่งสง,หนองหงส์,8.184980399999999,99.61639609999999
09001,รพ.สต.บ้านกอตง,กระบี่,เขาพนม,เขาดิน,8.3356018,99.0607854
13875,รพ.สต.บ้านรวมไทย,อุบลราชธานี,กุดข้าวปุ้น,หนองทันน้ำ,15.8424633,105.0821646
09703,รพ.สต.เกาะเปียะ,ตรัง,ย่านตาขาว,เกาะเปียะ,7.4558477,99.6954033
12793,รพ.สต.บ้านถ่อน,อำนาจเจริญ,พนา,ไม้กลอน,15.7273158,104.833077
13623,เทศบาลเมืองพระพุทบาท,สระบุรี,พระพุทธบาท,ขุนโขลน,14.7269745,100.7939796
09646,รพ.สต.ทุ่งบุหลัง,สตูล,ทุ่งหว้า,ทุ่งบุหลัง,7.034432,99.686573
09649,รพ.สต.ตำบลปาล์มพัฒนา,สตูล,มะนัง,ปาล์มพัฒนา,7.0514655,99.92415749999999
09650,รพ.สต.บ้านมะนัง,สตูล,มะนัง,ปาล์มพัฒนา,7.0514655,99.92415749999999
09652,รพ.สต.เฉลิมพระเกียรติ 60 พรรษา นวมินทราชินี,สตูล,มะนัง,นิคมพัฒนา,6.9742016,99.9175491
09656,รพ.สต.ควนปริง,ตรัง,เมืองตรัง,ควนปริง,7.5079211,99.6003892
15016,รพ.สต.บ้านป่าตาล,นครสวรรค์,ตาคลี,ลาดทิพรส,15.2458354,100.5540548
14353,รพ.สต.พรประเสริฐ,เลย,เอราวัณ,เอราวัณ,17.3702095,101.900579
09792,รพ.สต.บ้านนาโหนด,พัทลุง,เมืองพัทลุง,นาโหนด,7.4948898,100.0611159
09796,รพ.สต.บ้านกงหราใหม่,พัทลุง,กงหรา,กงหรา,7.472730299999999,99.9301819
09797,รพ.สต.บ้านหัวหรั่ง,พัทลุง,กงหรา,ชะรัด,7.471108099999999,100.0050042
09801,รพ.สต.บ้านโล๊ะจังกระ,พัทลุง,กงหรา,คลองเฉลิม,7.3434263,100.0056492
09803,รพ.สต.บ้านพังกิ่ง,พัทลุง,กงหรา,สมหวัง,7.504657299999999,100.0057913
09804,รพ.สต.บ้านหวัง,พัทลุง,กงหรา,สมหวัง,7.5129566,99.98498529999999
09805,รพ.สต.บ้านโคกยา,พัทลุง,เขาชัยสน,เขาชัยสน,7.397251599999999,100.104248
09808,รพ.สต.บ้านไสนายขัน,พัทลุง,เขาชัยสน,ควนขนุน,7.5197116,100.0839167
09809,รพ.สต.จองถนน,พัทลุง,เขาชัยสน,จองถนน,7.502569500000001,100.2263694
14355,รพ.สต.หลักร้อยหกสิบ,เลย,หนองหิน,หนองหิน,17.0830549,101.8780737
14357,รพ.สต.บ้านสันมะนะ,ลำพูน,เมืองลำพูน,ต้นธง,18.5693696,98.9480628
15228,ศูนย์บริการสาธารณสุข4 (สิริเวชชะพันธ์อุปถัมภ์),ปทุมธานี,ธัญบุรี,ประชาธิปัตย์,13.9925838,100.6240821
09815,รพ.สต.บ้านท่าควาย,พัทลุง,เขาชัยสน,โคกม่วง,7.45133,100.0492012
09816,รพ.สต.บ้านเกาะทองสม,พัทลุง,เขาชัยสน,โคกม่วง,7.383487499999999,100.0617969
09817,รพ.สต.บ้านคลองนุ้ย,พัทลุง,ตะโหมด,ตะโหมด,7.3234561,100.0370057
14715,รพ.สต.บ้านคีรีวง,สตูล,ทุ่งหว้า,ทุ่งหว้า,7.0930976,99.80928449999999
14842,รพ.สต.บ้านป่ายางชุม,ร้อยเอ็ด,สุวรรณภูมิ,นาใหญ่,15.6794443,103.7502477
09819,รพ.สต.บ้านตะโหมด,พัทลุง,ตะโหมด,ตะโหมด,7.293758599999999,100.062234
15252,ศสช.ชุมแพ,ขอนแก่น,ชุมแพ,ชุมแพ,16.5235265,102.0832543
09751,รพ.สต.บ้านสะพานเคียน,ตรัง,วังวิเศษ,วังมะปราง,7.671116400000001,99.4006146
09754,รพ.สต.ท่าสะบ้า,ตรัง,วังวิเศษ,ท่าสะบ้า,7.6676053,99.50958849999999
08801,รพ.สต.บ้านปากจัง,นครศรีธรรมราช,พิปูน,กะทูน,8.570572499999999,99.57113600000001
08802,รพ.สต.บ้านปากระแนะ,นครศรีธรรมราช,พิปูน,เขาพระ,8.648901799999999,99.6118667
07427,รพ.สต.บ้านแก่ง,สุโขทัย,ศรีสัชนาลัย,บ้านแก่ง,17.4309531,99.69054899999999
07433,รพ.สต.วังลึก,สุโขทัย,ศรีสำโรง,วังลึก,17.1499751,99.8756207
06972,รพ.สต.บ้านช่องแค,นครสวรรค์,ตาคลี,ช่องแค,15.1708072,100.4211563
06974,รพ.สต.บ้านจันเสน,นครสวรรค์,ตาคลี,จันเสน,15.1223664,100.4585808
06977,รพ.สต.บ้านหัวหวาย,นครสวรรค์,ตาคลี,หัวหวาย,15.3487649,100.3128902
06978,รพ.สต.บ้านเขาดิน,นครสวรรค์,ตาคลี,หัวหวาย,15.3994486,100.3357489
06979,รพ.สต.บ้านห้วยดุก,นครสวรรค์,ตาคลี,หนองโพ,15.4232264,100.2628167
14335,ศูนย์บริการสาธารณสุขเทศบาลเมืองชุมแสง,นครสวรรค์,ชุมแสง,ทับกฤช,15.8929623,100.3006904
14344,ศูนย์บริการสาธารณสุข3 (เทพธัญญะอุปถัมภ์),ปทุมธานี,ธัญบุรี,ประชาธิปัตย์,13.9753671,100.6255342
14345,ศูนย์บริการสาธารณสุข2(ชุมชนรัตนโกสินทร์),ปทุมธานี,ธัญบุรี,ประชาธิปัตย์,13.9920439,100.6092768
21423,สถานพยาบาลเรือนจำกลางพระนครศรีอยุธยา,พระนครศรีอยุธยา,พระนครศรีอยุธยา,หันตรา,14.3716893,100.6091878
21431,ศูนย์บริการทางการแพทย์ คณะแพทยศาสตร์ มหาวิทยาลัยมหาสารคาม,มหาสารคาม,กันทรวิชัย,ขามเรียง,16.1987503,103.28622
07774,รพ.สต.หนองยาว ตำบลหินฮาว,เพชรบูรณ์,หล่มเก่า,หินฮาว,16.9403371,101.2347801
07776,รพ.สต.ท่าผู,เพชรบูรณ์,หล่มเก่า,หินฮาว,16.969262,101.2382107
07777,รพ.สต.บ้านเนิน ตำบลบ้านเนิน,เพชรบูรณ์,หล่มเก่า,บ้านเนิน,16.8514415,101.1849423
08934,รพ.สต.บ้านเปร็ต,นครศรีธรรมราช,ขนอม,ขนอม,9.155153499999999,99.8459774
08936,รพ.สต.บ้านท่าน้อย,นครศรีธรรมราช,ขนอม,ควนทอง,9.207167199999999,99.80853049999999
08937,รพ.สต.บ้านท่าจันทร์,นครศรีธรรมราช,ขนอม,ท้องเนียน,9.2741435,99.8135573
14686,รพ.สต.บ้านนา,ฉะเชิงเทรา,สนามชัยเขต,คู้ยายหมี,13.6346468,101.490712
07435,รพ.สต.บ้านนา,สุโขทัย,ศรีสำโรง,บ้านนา,17.1700266,99.79017809999999
07437,รพ.สต.บ้านวังพิกุล,สุโขทัย,ศรีสำโรง,นาขุนไกร,17.127811,99.642808
07439,รพ.สต.เกาะตาเลี้ยง,สุโขทัย,ศรีสำโรง,เกาะตาเลี้ยง,17.123019,99.82837099999999
15011,รพ.สต.บ้านแก่นเท่า,ขอนแก่น,บ้านฝาง,บ้านฝาง,16.5117268,102.6349328
09767,รพ.สต.เขาไพร,ตรัง,รัษฎา,เขาไพร,7.9492065,99.6954033
09265,รพ.สต.เวียงสระ,สุราษฎร์ธานี,เวียงสระ,เวียงสระ,8.655972499999999,99.2989129
14455,รพ.สต.บ้านบุสูง,ปราจีนบุรี,นาดี,นาดี,14.153506,101.810908
14294,ศูนย์บริการสาธารณสุขเทศบาล1 (หนองขาม),ชลบุรี,ศรีราชา,หนองขาม,13.1006397,100.9666815
22015,รพ.สต.บ้านตันหยงละไน้,สตูล,ละงู,แหลมสน,6.966924,99.68723999999999
14461,รพ.สต.บ้านหนองผึ้ง,เชียงใหม่,สารภี,หนองผึ้ง,18.7336997,99.0173916
22816,สถานพยาบาลเรือนจำจังหวัดสุโขทัย,สุโขทัย,เมืองสุโขทัย,ธานี,17.0057175,99.8294236
22817,สถานพยาบาลเรือนจำจังหวัดหนองคาย,หนองคาย,เมืองหนองคาย,โพธิ์ชัย,17.8688574,102.7467935
22818,สถานพยาบาลเรือนจำจังหวัดหนองบัวลำภู,หนองบัวลำภู,เมืองหนองบัวลำภู,หนองภัยศูนย์,17.2965203,102.3871459
22819,สถานพยาบาลเรือนจำจังหวัดอ่างทอง,อ่างทอง,เมืองอ่างทอง,ศาลาแดง,14.5943583,100.4427061
22820,สถานพยาบาลเรือนจำจังหวัดอุตรดิตถ์,อุตรดิตถ์,เมืองอุตรดิตถ์,ท่าอิฐ,17.6239461,100.0963789
22821,สถานพยาบาลเรือนจำอำเภอทุ่งสง,นครศรีธรรมราช,ทุ่งสง,ถ้ำใหญ่,8.157525999999999,99.73382749999999
22847,สถานพยาบาลทัณฑสถานบำบัดพิเศษขอนแก่น,ขอนแก่น,เมืองขอนแก่น,ในเมือง,16.4302742,102.8460456
22848,สถานพยาบาลทัณฑสถานเปิดบ้านนาวง,พัทลุง,ศรีนครินทร์,บ้านนา,7.585034899999999,99.8591718
22849,สถานพยาบาลทัณฑสถานเปิดบ้านเนินสูง,ปราจีนบุรี,เมืองปราจีนบุรี,เนินหอม,14.2138968,101.4021979
22850,สถานพยาบาลทัณฑสถานบำบัดพิเศษลำปาง,ลำปาง,ห้างฉัตร,ปงยางคก,18.3022245,99.41696150000001
22851,สถานพยาบาลทัณฑสถานบำบัดพิเศษสงขลา,สงขลา,เมืองสงขลา,เกาะแต้ว,7.134779,100.6469368
22852,สถานพยาบาลทัณฑสถานบำบัดพิเศษหญิง,ปทุมธานี,คลองหลวง,คลองห้า,14.026805,100.7111942
22853,สถานพยาบาลทัณฑสถานเกษตรอุตสาหกรรมเขาพริก,นครราชสีมา,สีคิ้ว,คลองไผ่,14.8935337,101.5377264
09008,รพ.สต.บ้านคลองโตบ,กระบี่,เกาะลันตา,เกาะลันตาใหญ่,7.624367699999999,99.0792263
10180,รพ.สต.ผดุงมาตร,นราธิวาส,จะแนะ,ผดุงมาตร,6.0971834,101.7637775
10182,รพ.สต.ไอร์ซือเร๊ะ,นราธิวาส,จะแนะ,ช้างเผือก,6.032212100000001,101.6442225
10186,รพ.สต.บ้านไอสะเตีย,นราธิวาส,เจาะไอร้อง,บูกิต,6.167706,101.8337432
10188,รพ.สต.มะรือโบออก,นราธิวาส,เจาะไอร้อง,มะรือโบออก,6.2612195,101.8777664
10189,รพ.สต.บ้านปิเหล็ง,นราธิวาส,เจาะไอร้อง,มะรือโบออก,6.2446758,101.9176916
22854,สถานพยาบาลทัณฑสถานเปิดทุ่งเบญจา,จันทบุรี,ท่าใหม่,ทุ่งเบญจา,12.7886061,102.0346341
22856,สถานพยาบาลทัณฑสถานหญิงชลบุรี,ชลบุรี,เมืองชลบุรี,บางปลาสร้อย,13.3535191,100.9784152
22857,สถานพยาบาลทัณฑสถานเปิดหนองน้ำขุ่น,นครสวรรค์,บรรพตพิสัย,บ้านแดน,15.941012,99.8507695
22858,สถานพยาบาลทัณฑสถานเปิดห้วยโป่ง,ระยอง,เมืองระยอง,มาบตาพุด,12.7075886,101.1788175
22860,สถานพยาบาลทัณฑสถานวัยหนุ่มนครศรีธรรมราช,นครศรีธรรมราช,เมืองนครศรีธรรมราช,ในเมือง,8.4913662,99.9267432
22862,สถานพยาบาลทัณฑสถานหญิงสงขลา,สงขลา,เมืองสงขลา,เขารูปช้าง,7.1522415,100.6185667
22863,สถานพยาบาลทัณฑสถานหญิงพิษณุโลก,พิษณุโลก,วังทอง,วังทอง,16.8416826,100.386606
22864,สถานพยาบาลกักขังกลางจังหวัดปทุมธานี,ปทุมธานี,ธัญบุรี,รังสิต,14.018089,100.7190758
22865,สถานพยาบาลทัณฑสถานหญิงเชียงใหม่,เชียงใหม่,เมืองเชียงใหม่,ศรีภูมิ,18.790462,98.98586700000001
22866,สถานพยาบาลสถานกักขังกลางจังหวัดตราด,ตราด,เมืองตราด,บางพระ,12.2421471,102.5143217
22867,สถานพยาบาลทัณฑสถานหญิงนครราชสีมา,นครราชสีมา,สีคิ้ว,คลองไผ่,14.8518738,101.5703807
14014,รพ.สต.บ้านศรีนาชื่น,น่าน,เวียงสา,ทุ่งศรีทอง,18.6802267,100.6554905
14020,รพ.สต.บ้านร่องคต,เชียงราย,พาน,ทานตะวัน,19.4652506,99.77295579999999
22823,สถานพยาบาลเรือนจำอำเภอกบินทร์บุรี,ปราจีนบุรี,กบินทร์บุรี,กบินทร์,13.9845705,101.7056884
22824,สถานพยาบาลเรือนจำอำเภอกันทรลักษ์,ศรีสะเกษ,กันทรลักษ์,กระแชง,14.679188,104.5850974
22825,สถานพยาบาลเรือนจำอำเภอไชยา,สุราษฎร์ธานี,ไชยา,ตลาดไชยา,9.3862914,99.20429279999999
22826,สถานพยาบาลเรือนจำอำเภอตะกั่วป่า,พังงา,ตะกั่วป่า,บางนายสี,8.8700311,98.3408645
22827,สถานพยาบาลเรือนจำอำเภอทองผาภูมิ,กาญจนบุรี,ทองผาภูมิ,ท่าขนุน,14.7779604,98.5891194
22828,สถานพยาบาลเรือนจำอำเภอพล,ขอนแก่น,พล,เพ็กใหญ่,15.8164362,102.5721937
09010,รพ.สต.บ้านร่าปู,กระบี่,เกาะลันตา,เกาะกลาง,7.727715799999999,99.0911309
09011,รพ.สต.บ้านนาทุ่งกลาง,กระบี่,เกาะลันตา,เกาะกลาง,7.789527000000001,99.058449
09013,รพ.สต.บ้านศาลาด่าน,กระบี่,เกาะลันตา,ศาลาด่าน,7.648214800000001,99.03755579999999
09024,รพ.สต.บ้านแหลมสัก,กระบี่,อ่าวลึก,แหลมสัก,8.2812365,98.6533034
06840,รพ.สต.แม่สุริน,แม่ฮ่องสอน,ขุนยวม,ขุนยวม,18.9343575,97.9483898
06842,รพ.สต.เมืองปอน,แม่ฮ่องสอน,ขุนยวม,เมืองปอน,18.7644509,97.92115550000001
06843,รพ.สต.แม่ลาก๊ะ,แม่ฮ่องสอน,ขุนยวม,เมืองปอน,18.690912,97.98653499999999
06846,รพ.สต.แม่แจ๊ะ,แม่ฮ่องสอน,ขุนยวม,แม่ยวมน้อย,18.7480072,98.0301544
06847,รพ.สต.แม่กิ๊,แม่ฮ่องสอน,ขุนยวม,แม่กิ๊,18.6689893,97.8068851
22830,สถานพยาบาลเรือนจำอำเภอธัญบุรี,ปทุมธานี,ธัญบุรี,รังสิต,14.0216025,100.7330381
06849,รพ.สต.เวียงเหนือ,แม่ฮ่องสอน,ปาย,เวียงเหนือ,19.4875706,98.5062007
22832,สถานพยาบาลเรือนจำจังหวัดบึงกาฬ,บึงกาฬ,เมืองบึงกาฬ,โนนสมบูรณ์,18.3175725,103.6406726
22833,สถานพยาบาลเรือนจำอำเภอเบตง,ยะลา,เบตง,เบตง,5.772937499999999,101.0668125
22834,สถานพยาบาลเรือนจำอำเภอปากพนัง,นครศรีธรรมราช,ปากพนัง,ปากพนัง,8.3554529,100.1992346
22835,สถานพยาบาลเรือนจำอำเภอสวรรคโลก,สุโขทัย,สวรรคโลก,เมืองสวรรคโลก,17.3090687,99.82751259999999
22836,สถานพยาบาลเรือนจำอำเภอรัตนบุรี,สุรินทร์,รัตนบุรี,ไผ่,15.325647,103.8627508
22837,สถานพยาบาลเรือนจำอำเภอนางรอง,บุรีรัมย์,นางรอง,นางรอง,14.6281961,102.7946788
22838,สถานพยาบาลเรือนจำอำเภอภูเขียว,ชัยภูมิ,ภูเขียว,ผักปัง,16.3666017,102.1317125
22839,สถานพยาบาลเรือนจำอำเภอแม่สอด,ตาก,แม่สอด,แม่สอด,16.7129963,98.57749460000001
22840,สถานพยาบาลเรือนจำอำเภอแม่สะเรียง,แม่ฮ่องสอน,แม่สะเรียง,แม่สะเรียง,18.1606989,97.93559669999999
22841,สถานพยาบาลทัณฑสถานบำบัดพิเศษจังหวัดปทุมธานี,ปทุมธานี,ธัญบุรี,รังสิต,14.022884,100.7103368
22843,สถานพยาบาลเรือนจำอำเภอสว่างแดนดิน,สกลนคร,สว่างแดนดิน,หนองหลวง,17.3907964,103.393389
22844,สถานพยาบาลเรือนจำอำเภอสีคิ้ว,นครราชสีมา,สีคิ้ว,ลาดบัวขาว,14.8549715,101.6695206
22845,สถานพยาบาลเรือนจำอำเภอหลังสวน,ชุมพร,หลังสวน,หลังสวน,9.949221999999999,99.08717299999999
22846,สถานพยาบาลเรือนจำอำเภอหล่มสัก,เพชรบูรณ์,หล่มสัก,สักหลง,16.8153571,101.2509612
10005,รพ.สต.บ้านบาโงยือแบ็ง,ปัตตานี,กะพ้อ,กะรุบี,6.582792200000001,101.5345077
10006,รพ.สต.บ้านอุแตบือราแง,ปัตตานี,กะพ้อ,ตะโละดือรามัน,6.6216517,101.5745567
10007,รพ.สต.ตะโละดือรามัน,ปัตตานี,กะพ้อ,ตะโละดือรามัน,6.608361299999999,101.5645958
10009,รพ.สต.บ้านปล่องหอย,ปัตตานี,กะพ้อ,ปล่องหอย,6.6252998,101.5134398
22738,สถานพยาบาลเรือนจำกลางนครราชสีมา,นครราชสีมา,เมืองนครราชสีมา,ในเมือง,14.9720598,102.1123376
22739,สถานพยาบาลเรือนจำพิเศษพัทยา,ชลบุรี,บางละมุง,หนองปลาไหล,12.9899143,100.9618449
22740,สถานพยาบาลเรือนจำพิเศษมีนบุรี,กรุงเทพฯ,เขตมีนบุรี,มีนบุรี,13.814982,100.7331965
22741,สถานพยาบาลเรือนจำกลางกำแพงเพชร,กำแพงเพชร,เมืองกำแพงเพชร,หนองปลิง,16.5644378,99.51173279999999
22742,สถานพยาบาลเรือนจำกลางขอนแก่น,ขอนแก่น,เมืองขอนแก่น,ในเมือง,16.4316094,102.8458903
22743,สถานพยาบาลเรือนจำกลางเขาบิน,ราชบุรี,เมืองราชบุรี,น้ำพุ,13.5734634,99.6483318
22744,สถานพยาบาลเรือนจำกลางนครศรีธรรมราช,นครศรีธรรมราช,พระพรหม,นาพรุ,8.4229389,99.96319349999999
22745,สถานพยาบาลเรือนจำกลางคลองไผ่,นครราชสีมา,สีคิ้ว,คลองไผ่,14.8543893,101.5720368
22747,สถานพยาบาลเรือนจำกลางชลบุรี,ชลบุรี,บ้านบึง,คลองกิ่ว,13.2190718,101.188223
22785,สถานพยาบาลเรือนจำจังหวัดนราธิวาส,นราธิวาส,เมืองนราธิวาส,บางนาค,6.4241268,101.8239463
22778,สถานพยาบาลเรือนจำจังหวัดชัยนาท,ชัยนาท,เมืองชัยนาท,ในเมือง,15.1824994,100.1250779
22779,สถานพยาบาลเรือนจำจังหวัดน่าน,น่าน,เมืองน่าน,ในเวียง,18.7728873,100.7722258
22781,สถานพยาบาลเรือนจำจังหวัดตรัง,ตรัง,เมืองตรัง,โคกหล่อ,7.4880459,99.61097409999999
22782,สถานพยาบาลเรือนจำจังหวัดตราด,ตราด,เมืองตราด,วังกระแจะ,12.2298989,102.5401132
22786,สถานพยาบาลเรือนจำจังหวัดพิจิตร,พิจิตร,เมืองพิจิตร,ในเมือง,16.4381288,100.3512769
22787,สถานพยาบาลเรือนจำจังหวัดบุรีรัมย์,บุรีรัมย์,เมืองบุรีรัมย์,อิสาณ,14.9749298,103.1063352
22788,สถานพยาบาลเรือนจำจังหวัดปทุมธานี,ปทุมธานี,สามโคก,บางกระบือ,14.1018012,100.5173956
22789,สถานพยาบาลเรือนจำจังหวัดประจวบคีรีขันธ์,ประจวบคีรีขันธ์,เมืองประจวบคีรีขันธ์,ประจวบคีรีขันธ์,11.8140322,99.794384
22790,สถานพยาบาลเรือนจำจังหวัดปราจีนบุรี,ปราจีนบุรี,เมืองปราจีนบุรี,หน้าเมือง,14.0498896,101.3672355
22791,สถานพยาบาลเรือนจำจังหวัดพะเยา,พะเยา,เมืองพะเยา,บ้านต๋อม,19.2021763,99.8861567
22793,สถานพยาบาลเรือนจำจังหวัดมหาสารคาม,มหาสารคาม,เมืองมหาสารคาม,แวงน่าง,16.1618207,103.3472548
22794,สถานพยาบาลเรือนจำจังหวัดศรีสะเกษ,ศรีสะเกษ,เมืองศรีสะเกษ,เมืองเหนือ,15.1232774,104.3182657
22795,สถานพยาบาลเรือนจำจังหวัดพิษณุโลก,พิษณุโลก,วังทอง,วังทอง,16.8328273,100.4231753
22796,สถานพยาบาลเรือนจำจังหวัดเพชรบูรณ์,เพชรบูรณ์,เมืองเพชรบูรณ์,ในเมือง,16.4116999,101.1525894
22798,สถานพยาบาลเรือนจำจังหวัดภูเก็ต,ภูเก็ต,ถลาง,ศรีสุนทร,7.992533900000001,98.336197
22799,สถานพยาบาลเรือนจำจังหวัดมุกดาหาร,มุกดาหาร,เมืองมุกดาหาร,มุกดาหาร,16.5316728,104.7050665
22800,สถานพยาบาลเรือนจำจังหวัดสกลนคร,สกลนคร,เมืองสกลนคร,ธาตุเชิงชุม,17.132774,104.1334143
22801,สถานพยาบาลเรือนจำจังหวัดแม่ฮ่องสอน,แม่ฮ่องสอน,เมืองแม่ฮ่องสอน,ปางหมู,19.3122226,97.96268909999999
22802,สถานพยาบาลเรือนจำจังหวัดยโสธร,ยโสธร,เมืองยโสธร,ในเมือง,15.7910454,104.1535302
22748,สถานพยาบาลเรือนจำกลางเชียงราย,เชียงราย,เมืองเชียงราย,ดอยฮาง,19.9193428,99.77453609999999
22749,สถานพยาบาลเรือนจำกลางเชียงใหม่,เชียงใหม่,เมืองเชียงใหม่,ช้างเผือก,18.8411034,98.9741808
22750,สถานพยาบาลเรือนจำกลางนครปฐม,นครปฐม,เมืองนครปฐม,พระปฐมเจดีย์,13.8575339,100.0105856
22751,สถานพยาบาลเรือนจำกลางยะลา,ยะลา,เมืองยะลา,สะเตง,6.5399315,101.252773
22752,สถานพยาบาลเรือนจำกลางสุราษฎร์ธานี,สุราษฎร์ธานี,เมืองสุราษฎร์ธานี,ตลาด,9.1338677,99.3288036
22753,สถานพยาบาลเรือนจำกลางนครสวรรค์,นครสวรรค์,เมืองนครสวรรค์,นครสวรรค์ตก,15.6891292,100.1124631
22757,สถานพยาบาลเรือนจำกลางพิษณุโลก,พิษณุโลก,วังทอง,วังทอง,16.8470884,100.3829743
22803,สถานพยาบาลเรือนจำจังหวัดระนอง,ระนอง,เมืองระนอง,เขานิเวศน์,9.9702076,98.63371479999999
22804,สถานพยาบาลเรือนจำจังหวัดร้อยเอ็ด,ร้อยเอ็ด,เมืองร้อยเอ็ด,ในเมือง,16.0416251,103.6548766
22805,สถานพยาบาลเรือนจำจังหวัดลำพูน,ลำพูน,เมืองลำพูน,ริมปิง,18.588478,98.9841763
22806,สถานพยาบาลเรือนจำจังหวัดเลย,เลย,เมืองเลย,เมือง,17.487762,101.7179134
22808,สถานพยาบาลเรือนจำจังหวัดอุทัยธานี,อุทัยธานี,เมืองอุทัยธานี,อุทัยใหม่,15.3717227,100.0412568
22809,สถานพยาบาลเรือนจำจังหวัดสงขลา,สงขลา,เมืองสงขลา,เขารูปช้าง,7.1538303,100.6183206
22810,สถานพยาบาลเรือนจำจังหวัดสระบุรี,สระบุรี,เมืองสระบุรี,ปากเพรียว,14.5348609,100.9086969
22811,สถานพยาบาลเรือนจำจังหวัดสตูล,สตูล,เมืองสตูล,พิมาน,6.619363099999999,100.0714491
22812,สถานพยาบาลเรือนจำจังหวัดสมุทรสาคร,สมุทรสาคร,เมืองสมุทรสาคร,บางหญ้าแพรก,13.5389604,100.2828474
22813,สถานพยาบาลเรือนจำจังหวัดสระแก้ว,สระแก้ว,เมืองสระแก้ว,สระขวัญ,13.7920157,102.0250928
22814,สถานพยาบาลเรือนจำจังหวัดอำนาจเจริญ,อำนาจเจริญ,เมืองอำนาจเจริญ,บุ่ง,15.8407743,104.628153
22815,สถานพยาบาลเรือนจำจังหวัดสุพรรณบุรี,สุพรรณบุรี,เมืองสุพรรณบุรี,ท่าระหัด,14.4506957,100.1336139
22759,สถานพยาบาลเรือนจำกลางระยอง,ระยอง,บ้านค่าย,หนองละลอก,12.8671747,101.2297305
22760,สถานพยาบาลเรือนจำกลางราชบุรี,ราชบุรี,เมืองราชบุรี,น้ำพุ,13.57062,99.647418
22762,สถานพยาบาลเรือนจำกลางลำปาง,ลำปาง,เมืองลำปาง,หัวเวียง,18.2896345,99.5070734
22763,สถานพยาบาลเรือนจำกลางสงขลา,สงขลา,เมืองสงขลา,เขารูปช้าง,7.154438900000001,100.6156998
22767,สถานพยาบาลเรือนจำกลางอุบลราชธานี,อุบลราชธานี,เมืองอุบลราชธานี,ในเมือง,15.232112,104.8423191
22768,สถานพยาบาลเรือนจำกลางสุรินทร์,สุรินทร์,เมืองสุรินทร์,นอกเมือง,14.8809671,103.4639475
22769,สถานพยาบาลเรือนจำกลางตาก,ตาก,เมืองตาก,วังหิน,16.8585501,99.1396805
22770,สถานพยาบาลเรือนจำกลางนครพนม,นครพนม,เมืองนครพนม,ขามเฒ่า,17.2865055,104.7796254
22771,สถานพยาบาลเรือนจำกลางเพชรบุรี,เพชรบุรี,แก่งกระจาน,วังจันทร์,12.919668,99.7314385
22772,สถานพยาบาลเรือนจำจังหวัดชุมพร,ชุมพร,เมืองชุมพร,บางหมาก,10.481065,99.20136529999999
22773,สถานพยาบาลเรือนจำกลางปัตตานี,ปัตตานี,เมืองปัตตานี,บานา,6.891363300000001,101.2680774
22774,สถานพยาบาลเรือนจำจังหวัดกระบี่,กระบี่,เมืองกระบี่,ปากน้ำ,8.0568075,98.9138026
22775,สถานพยาบาลเรือนจำจังหวัดกาญจนบุรี,กาญจนบุรี,เมืองกาญจนบุรี,ปากแพรก,14.0061447,99.5508985
22776,สถานพยาบาลเรือนจำจังหวัดกาฬสินธุ์,กาฬสินธุ์,เมืองกาฬสินธุ์,กาฬสินธุ์,16.4549882,103.519886
22777,สถานพยาบาลเรือนจำจังหวัดจันทบุรี,จันทบุรี,เมืองจันทบุรี,วัดใหม่,12.5951952,102.089705
22765,สถานพยาบาลเรือนจำกลางสมุทรสงคราม,สมุทรสงคราม,เมืองสมุทรสงคราม,ลาดใหญ่,13.4243581,100.0192591
22766,สถานพยาบาลเรือนจำจังหวัดชัยภูมิ,ชัยภูมิ,เมืองชัยภูมิ,ในเมือง,15.806432,102.014646
09085,รพ.สต.บ้านท่าอยู่,พังงา,ตะกั่วทุ่ง,ท่าอยู่,8.2532965,98.40745729999999
09098,รพ.สต.คึกคัก,พังงา,ตะกั่วป่า,คึกคัก,8.7067756,98.2593725
09148,รพ.สต.บางใบไม้,สุราษฎร์ธานี,เมืองสุราษฎร์ธานี,บางใบไม้,9.164089599999999,99.299459
09205,รพ.สต.บ้านคลองรอก,สุราษฎร์ธานี,ท่าชนะ,ประสงค์,9.5862915,98.9024603
09696,รพ.สต.บ้านวัดโพรงจระเข้,ตรัง,ย่านตาขาว,ในควน,7.4067653,99.7634679
09750,รพ.สต.บ้านหนองคล้า,ตรัง,วังวิเศษ,เขาวิเศษ,7.6134694,99.4497827
09851,รพ.สต.บ้านควนพระ,พัทลุง,ปากพะยูน,ฝาละมี,7.379911,100.200761
09860,รพ.สต.เขาปู่,พัทลุง,ศรีบรรพต,เขาปู่,7.704519400000001,99.8236533
09875,รพ.สต.บ้านนาปะขอ,พัทลุง,บางแก้ว,นาปะขอ,7.438524200000001,100.2263694
13957,รพ.สต.บ้านกอกแก้ว,ร้อยเอ็ด,จังหาร,ดงสิงห์,16.1642182,103.5784856
13964,รพ.สต.บ้านสวนโคก,กาฬสินธุ์,กมลาไสย,ดงลิง,16.2592785,103.6429012
14031,รพ.สต.บ้านหนองเสลา,นครสวรรค์,ตากฟ้า,เขาชายธง,15.3085504,100.4628418
14065,รพ.สต.บ้านหนองกรด,พิจิตร,สากเหล็ก,สากเหล็ก,16.4960596,100.4508956
14086,รพ.สต.บ้านนบ,นครศรีธรรมราช,นบพิตำ,กรุงชิง,8.796700099999999,99.6938303
14097,รพ.สต.บ้านเหนือคลอง,สตูล,ควนกาหลง,ควนกาหลง,6.9959777,100.0124858
14247,รพ.สต.บ้านถ่อนนาเพลิน,อุดรธานี,พิบูลย์รักษ์,นาทราย,17.6115053,103.1297947
14273,รพ.สต.บ้านเหียงงาม,อุทัยธานี,ทัพทัน,หนองกลางดง,15.4823569,99.8543504
14280,รพ.สต.บ้านบึงท่ายวน,อุตรดิตถ์,พิชัย,คอรุม,17.282792,100.071017
08478,รพ.สต.สายสี่,สมุทรสาคร,กระทุ่มแบน,อ้อมน้อย,13.712739,100.330494
14879,รพ.สต.บ้านโคกป่งเปือย,มุกดาหาร,เมืองมุกดาหาร,นาโสก,16.4650807,104.472705
09226,รพ.สต.อำเภอพนม,สุราษฎร์ธานี,พนม,พนม,8.810666800000002,98.78116449999999
09231,รพ.สต.คลองศก,สุราษฎร์ธานี,พนม,คลองศก,8.911972,98.586958
09279,รพ.สต.บ้านนิคม1,สุราษฎร์ธานี,พระแสง,ไทรขึง,8.5415232,99.11241389999999
09324,รพ.สต.บางพระเหนือ,ระนอง,ละอุ่น,บางพระเหนือ,10.032855,98.7260927
09349,รพ.สต.นาทุ่ง,ชุมพร,เมืองชุมพร,นาทุ่ง,10.4998749,99.223636
09374,รพ.สต.หงษ์เจริญ,ชุมพร,ท่าแซะ,หงษ์เจริญ,10.7526089,99.2025417
08758,รพ.สต.มะม่วงสองต้น,นครศรีธรรมราช,เมืองนครศรีธรรมราช,มะม่วงสองต้น,8.4028317,99.9564887
08783,รพ.สต.บ้านร่อน,นครศรีธรรมราช,ลานสกา,เขาแก้ว,8.3818741,99.8149938
08800,รพ.สต.บ้านกะทูนเหนือ,นครศรีธรรมราช,พิปูน,กะทูน,8.5882541,99.53837449999999
08808,รพ.สต.บ้านเนิน,นครศรีธรรมราช,เชียรใหญ่,บ้านเนิน,8.190002999999999,100.2039477
08837,รพ.สต.บ้านประดู่หอม,นครศรีธรรมราช,ท่าศาลา,ท่าขึ้น,8.645906199999999,99.9409196
09416,รพ.สต.ทุ่งระยะ,ชุมพร,สวี,ทุ่งระยะ,10.2283267,99.05933379999999
09427,รพ.สต.เขาทะลุ,ชุมพร,สวี,เขาทะลุ,10.2076828,98.9305389
09449,รพ.สต.คลองรี,สงขลา,สทิงพระ,คลองรี,7.5415824,100.383479
09454,รพ.สต.พังช้างตาย,สงขลา,สทิงพระ,บ่อแดง,7.3996599,100.4635418
09892,รพ.สต.บานา,ปัตตานี,เมืองปัตตานี,บานา,6.88772,101.261595
10127,รพ.สต.บาโงสะโต,นราธิวาส,ระแงะ,บาโงสะโต,6.293683,101.6849534
10197,รพ.สต.คลองหมากนัด,สระแก้ว,เมืองสระแก้ว,บ้านแก้ง,14.0141885,102.0382034
10360,รพ.สต.ห้วยเดื่อ,อุตรดิตถ์,น้ำปาด,น้ำไผ่,17.6584034,100.7560105
08857,รพ.สต.บ้านใต้,นครศรีธรรมราช,ทุ่งสง,นาหลวงเสน,8.1921334,99.7147973
08882,รพ.สต.ทุ่งใหญ่,นครศรีธรรมราช,ทุ่งใหญ่,ทุ่งใหญ่,8.3631796,99.39862099999999
08891,รพ.สต.บ้านเกาะจาก,นครศรีธรรมราช,ปากพนัง,ป่าระกำ,8.2737878,100.1192491
08898,รพ.สต.บ้านบางไทรนนท์,นครศรีธรรมราช,ปากพนัง,บ้านใหม่,8.2648077,100.1366525
08902,รพ.สต.บ้านบนเนิน,นครศรีธรรมราช,ปากพนัง,ปากพนังฝั่งตะวันตก,8.3616475,100.1673111
08907,รพ.สต.บ้านบางแรด,นครศรีธรรมราช,ปากพนัง,บ้านเพิง,8.2918144,100.2319757
08912,รพ.สต.บ้านบางตะลุมพอ,นครศรีธรรมราช,ปากพนัง,ขนาบนาก,8.194689,100.260441
08938,รพ.สต.บ้านศาลาแก้ว,นครศรีธรรมราช,หัวไทร,หัวไทร,8.0900815,100.2699938
08971,รพ.สต.บ้านท่าช้าง,นครศรีธรรมราช,พระพรหม,ช้างซ้าย,8.3364387,99.949581
08983,รพ.สต.บ้านป่าหวาย,นครศรีธรรมราช,เฉลิมพระเกียรติ,เชียรเขา,8.2155725,100.0776928
09009,รพ.สต.บ้านคลองโตนด,กระบี่,เกาะลันตา,เกาะลันตาน้อย,7.6654622,99.09742089999999
09632,รพ.สต.บ้านทางยาง,สตูล,ท่าแพ,สาคร,6.826067,99.875164
09647,รพ.สต.บ้านทุ่งดินลุ่ม,สตูล,ทุ่งหว้า,ป่าแก่บ่อหิน,7.058134,99.799869
10578,สสช.บ้านตะโป๊ะปู่,ตาก,ท่าสองยาง,แม่ต้าน,17.2845031,98.2869478
05973,รพ.สต.บ้านร่มหลวง,เชียงใหม่,สันทราย,แม่แฝก,19.037354,98.96881750000001
05983,รพ.สต.บ้านไร่,เชียงใหม่,หางดง,บ้านแหวน,18.7136999,98.9197698
05993,รพ.สต.บ้านบ่อพะแวน,เชียงใหม่,ฮอด,บ่อหลวง,18.1491119,98.3553204
08298,รพ.สต.ยุ้งทะลาย,สุพรรณบุรี,อู่ทอง,ยุ้งทะลาย,14.3286064,99.9073986
08330,รพ.สต.สนามจันทร์,นครปฐม,เมืองนครปฐม,สนามจันทร์,13.7839488,100.0511305
06098,สอ.เฉลิมพระเกียรติ 60 พรรษา นวมินทราชินีป่าซาง,ลำพูน,ป่าซาง,ป่าซาง,18.512748,98.94196799999999
06111,รพ.สต.ห้วยยาบ,ลำพูน,บ้านธิ,ห้วยยาบ,18.6693161,99.136496
06177,รพ.สต.บ้านปงดอน ตำบลปงดอน,ลำปาง,แจ้ห่ม,ปงดอน,18.7698649,99.62219479999999
06253,รพ.สต.ป่าเซ่า,อุตรดิตถ์,เมืองอุตรดิตถ์,ป่าเซ่า,17.5907282,100.1275693
06261,รพ.สต.เฉลิมพระเกียรติ 60 พรรษา นวมินทราชินี,อุตรดิตถ์,เมืองอุตรดิตถ์,งิ้วงาม,17.6661587,100.1994231
06272,รพ.สต.บ้านวังแดง,อุตรดิตถ์,ตรอน,วังแดง,17.5023736,100.1129616
06279,รพ.สต.ผาเลือด,อุตรดิตถ์,ท่าปลา,ผาเลือด,17.713865,100.4035636
06289,รพ.สต.ร่วมจิต,อุตรดิตถ์,ท่าปลา,ร่วมจิต,17.7077607,100.3516196
06303,รพ.สต.ห้วยน้อยกา,อุตรดิตถ์,บ้านโคก,ม่วงเจ็ดต้น,18.1036671,101.0315823
06309,รพ.สต.บ้านคลองละมุง,อุตรดิตถ์,พิชัย,ไร่อ้อย,17.3534096,100.0195926
06319,รพ.สต.นายาง,อุตรดิตถ์,พิชัย,นายาง,17.3044975,100.1959634
06370,รพ.สต.ห้วยแก๊ต,แพร่,ร้องกวาง,ห้วยโรง,18.3924118,100.4790006
06377,รพ.สต.บ้านปิน,แพร่,ลอง,บ้านปิน,18.0522452,99.7858674
06480,รพ.สต.สวด,น่าน,บ้านหลวง,สวด,18.8546834,100.4958678
04989,รพ.สต.บ้านเหล่าตามา,มหาสารคาม,บรบือ,โนนแดง,15.9000261,103.0617459
04994,รพ.สต.บ้านหนองคูขาด,มหาสารคาม,บรบือ,หนองคูขาด,15.9251642,102.9788845
04999,รพ.สต.บ้านเปลือย,มหาสารคาม,บรบือ,หนองโก,16.1124105,103.197308
06546,รพ.สต.บ่อเกลือเหนือ,น่าน,บ่อเกลือ,บ่อเกลือเหนือ,19.3073488,101.1730615
05068,รพ.สต.บ้านพังดี,มหาสารคาม,ยางสีสุราช,สร้างแซ่ง,15.624707,103.116783
05107,รพ.สต.บ้านเขวาตะคลอง,ร้อยเอ็ด,เกษตรวิสัย,ทุ่งทอง,15.4571745,103.4364235
05142,รพ.สต.บ้านยางด่อ,ร้อยเอ็ด,ทุ่งเขาหลวง,เทอดไทย,15.9791112,103.8482145
06685,รพ.สต.บ้านเขียะ,เชียงราย,เชียงของ,ศรีดอนชัย,20.1508337,100.4116955
06715,รพ.สต.บ้านร่องธาร,เชียงราย,พาน,ทรายขาว,19.6810798,99.698286
06719,รพ.สต.เมืองพาน,เชียงราย,พาน,เมืองพาน,19.552961,99.740541
06759,รพ.สต.ศรีเมืองชุม,เชียงราย,แม่สาย,ศรีเมืองชุม,20.372585,99.957478
06827,รพ.สต.ไม้ฮุง,แม่ฮ่องสอน,เมืองแม่ฮ่องสอน,ห้วยโป่ง,19.0471764,97.932048
06832,รพ.สต.หมอกจำแป่,แม่ฮ่องสอน,เมืองแม่ฮ่องสอน,หมอกจำแป่,19.513428,97.9374948
06833,รพ.สต.นาป่าแปก,แม่ฮ่องสอน,เมืองแม่ฮ่องสอน,หมอกจำแป่,19.5503097,97.90482
05192,รพ.สต.บ้านหนองคำ,ร้อยเอ็ด,หนองพอก,ภูเขาทอง,16.4068199,104.2466429
05197,รพ.สต.บ้านหนองขุ่น,ร้อยเอ็ด,หนองพอก,หนองขุ่นใหญ่,16.2375385,104.0908417
05209,รพ.สต.บ้านป่าขี,ร้อยเอ็ด,เสลภูมิ,นาเมือง,16.0588066,103.9881416
05228,รพ.สต.บ้านสองชั้น,ร้อยเอ็ด,สุวรรณภูมิ,หินกอง,15.6335606,103.7236435
05244,รพ.สต.บ้านหนองยาง,ร้อยเอ็ด,เมืองสรวง,กกกุง,15.7534719,103.7702051
05263,รพ.สต.บ้านบุ่งเลิศ,ร้อยเอ็ด,เมยวดี,บุ่งเลิศ,16.4328803,104.1781236
05295,รพ.สต.บ้านสะอาดนาทม,กาฬสินธุ์,เมืองกาฬสินธุ์,ลำปาว,16.6159722,103.4254733
07024,รพ.สต.บ้านหนองกลอย,นครสวรรค์,พยุหะคีรี,เขากะลา,15.6044103,100.2482053
07039,รพ.สต.บ้านหนองบอนใต้,นครสวรรค์,ลาดยาว,บ้านไร่,15.8863261,99.7065478
07057,รพ.สต.บ้านกัลยานิคม,นครสวรรค์,แม่วงก์,วังซ่าน,15.77772,99.517009
05310,รพ.สต.บ้านนาจารย์,กาฬสินธุ์,เมืองกาฬสินธุ์,นาจารย์,16.5322726,103.6140109
05313,รพ.สต.บ้านหัวงัง (บ้านหัวงัว),กาฬสินธุ์,นามน,สงเปลือย,16.6299973,103.7950241
05329,รพ.สต.บ้านท่าเพลิง,กาฬสินธุ์,กมลาไสย,เจ้าท่า,16.213543,103.6309407
05393,รพ.สต.บ้านนาบอน,กาฬสินธุ์,คำม่วง,นาบอน,16.8818806,103.6822967
05400,รพ.สต.บ้านแสนสุข,กาฬสินธุ์,ท่าคันโท,กุดจิก,16.9284267,103.1048009
05405,รพ.สต.บ้านหนองบัว,กาฬสินธุ์,หนองกุงศรี,หนองบัว,16.3085646,103.4405587
05409,รพ.สต.บ้านหนองชุมแสง,กาฬสินธุ์,หนองกุงศรี,หนองใหญ่,16.7062535,103.2478709
07122,รพ.สต.บ้านน้ำพุ,อุทัยธานี,บ้านไร่,คอกควาย,15.2439892,99.52137470000001
07355,รพ.สต.ช่องแคบ,ตาก,พบพระ,ช่องแคบ,16.5171632,98.7260927
07360,รพ.สต.บ้านรวมไทยพัฒนาที่ 16,ตาก,พบพระ,วาเล่ย์,16.4331277,98.78116449999999
07361,รพ.สต.บ้านรวมไทยพัฒนาที่ 1,ตาก,พบพระ,รวมไทยพัฒนา,16.4510166,98.7965641
05614,รพ.สต.บ้านบัว,นครพนม,เมืองนครพนม,ดงขวาง,17.2106307,104.7958516
05616,รพ.สต.บ้านโชคอำนวย,นครพนม,เมืองนครพนม,วังตามัว,17.3164051,104.4292155
05644,รพ.สต.ไผ่ล้อม,นครพนม,บ้านแพง,ไผ่ล้อม,17.986476,104.185221
05649,รพ.สต.บ้านคำนกกก,นครพนม,บ้านแพง,หนองแวง,17.7891699,104.2173177
05669,รพ.สต.นางาม,นครพนม,เรณูนคร,นางาม,17.0605203,104.6354631
05672,รพ.สต.บ้านนาบัว,นครพนม,เรณูนคร,โคกหินแฮ่,17.0281994,104.6533996
05686,รพ.สต.บ้านโพนตูม,นครพนม,นาแก,ก้านเหลือง,16.9607409,104.4071772
05691,รพ.สต.บ้านโคกสี,นครพนม,วังยาง,โคกสี,17.0875805,104.5014479
05695,รพ.สต.บ้านคำพี้,นครพนม,นาแก,คำพี้,16.9666607,104.3997611
05705,รพ.สต.บ้านท่าบ่อ,นครพนม,ศรีสงคราม,ท่าบ่อสงคราม,17.6545984,104.2135385
07584,รพ.สต.เฉลิมพระเกียรติ 60 พรรษา นวมินทราชินี,พิษณุโลก,วังทอง,บ้านกลาง,16.9744469,100.5608173
07595,รพ.สต.ชัยนาม,พิษณุโลก,วังทอง,ชัยนาม,16.8364819,100.4565877
07623,รพ.สต.บ้านดงกลาง,พิจิตร,เมืองพิจิตร,ดงกลาง,16.3443722,100.3441758
05748,รพ.สต.บ้านนาโด่(หมู่6),มุกดาหาร,เมืองมุกดาหาร,นาโสก,16.4458538,104.5384273
05816,รพ.สต.บ้านศรีบัวเงิน,เชียงใหม่,เมืองเชียงใหม่,ท่าศาลา,18.7661302,99.04420230000001
05822,รพ.สต.บ้านหนองห่าย,เชียงใหม่,จอมทอง,ข่วงเปา,18.451788,98.74443
07831,รพ.สต.ศรีมงคล,เพชรบูรณ์,บึงสามพัน,ศรีมงคล,15.8221935,100.8027349
07835,รพ.สต.ดงคล้อ,เพชรบูรณ์,น้ำหนาว,วังกวาง,16.9909018,101.6271544
07844,รพ.สต.ป่าแดง,เพชรบูรณ์,เขาค้อ,เขาค้อ,16.6260257,100.9401238
05853,รพ.สต.บ้านท่า,เชียงใหม่,ดอยสะเก็ด,สง่าบ้าน,18.8320382,99.12666279999999
05861,รพ.สต.บ้านห้วยหม้อ(สมเด็จ),เชียงใหม่,ดอยสะเก็ด,ป่าเมี่ยง,19.040927,99.335956
05872,รพ.สต.บ้านออบ,เชียงใหม่,แม่แตง,เมืองก๋าย,19.19181,98.8012725
05963,รพ.สต.บ้านมอญ,เชียงใหม่,สันกำแพง,สันกลาง,18.7910388,99.0466692
11467,สถานพยาบาลเรือนจำพิเศษกรุงเทพมหานคร,กรุงเทพฯ,เขตจตุจักร,ลาดยาว,13.8516245,100.5524262
10010,รพ.สต.บ้านคลองทราย,ปัตตานี,แม่ลาน,แม่ลาน,6.630647499999999,101.2277826
02518,สอ.นาคันหัก,สระแก้ว,เขาฉกรรจ์,พระเพลิง,13.6149218,102.0532629
02477,สอ.คลองหินปูน,สระแก้ว,วังน้ำเย็น,คลองหินปูน,13.6041056,102.1289715
06147,สอ.บ้านลำปางหลวง,ลำปาง,เกาะคา,ลำปางหลวง,18.2224837,99.4141843
10223,สสช.โศกขามป้อม,ศรีสะเกษ,กันทรลักษ์,ภูผาหมอก,14.4811079,104.8046066
10228,สสช.บ้านแปดอุ้ม,อุบลราชธานี,น้ำยืน,โดมประดิษฐ์,14.4197076,105.1747251
11237,ศูนย์บริการสาธารณสุขเทศบาลเมืองบางบัวทอง,นนทบุรี,บางบัวทอง,บางบัวทอง,13.8514159,100.4239773
12415,ศสช.หนองคะเน,ขอนแก่น,ชุมแพ,หนองไผ่,16.549008,102.1144819
12419,ศูนย์บริการสาธารณสุขเทศบาลเมืองหนองคาย,หนองคาย,เมืองหนองคาย,ในเมือง,17.8878708,102.7523003
11499,รพ.กองบิน 23,อุดรธานี,เมืองอุดรธานี,หมากแข้ง,17.3866128,102.8019278
11506,รพ.ค่ายพระยอดเมืองขวาง,นครพนม,เมืองนครพนม,กุรุคุ,17.3290697,104.572056
10412,สสช.บ้านห้วยก้างปลา,พะเยา,เชียงม่วน,สระ,18.926003,100.1647233
10416,สสช.บ้านปางผักหม,พะเยา,ปง,งิม,19.3335023,100.3172637
10418,สสช.บ้านสิบสองพัฒนา,พะเยา,ปง,ผาช้างน้อย,19.4710368,100.4899165
10384,สสช.สาลี,น่าน,เวียงสา,น้ำมวบ,18.4000643,100.9637456
10388,สสช.ห้วยหยวก,น่าน,เวียงสา,แม่ขะนิง,18.811385,100.5352367
11155,รพ.สบปราบ,ลำปาง,สบปราบ,สบปราบ,17.8471851,99.34511180000001
10377,สสช.ห้วยเลา,น่าน,นาน้อย,เชียงของ,18.3132635,100.9467939
10379,สสช.ผาเวียง,น่าน,ปัว,ภูคา,19.1707546,101.0089648
12402,ศูนย์บริการสาธารณสุขเทศบาลตำบลหนองแค,สระบุรี,หนองแค,หนองแค,14.3352467,100.8727635
11145,รพ.บ้านธิ,ลำพูน,บ้านธิ,บ้านธิ,18.6187095,99.1788304
10396,สสช.ปางช้าง,น่าน,สันติสุข,พงษ์,18.8873368,101.0428931
10398,สสช.ยอดดอยพัฒนา,น่าน,บ่อเกลือ,บ่อเกลือใต้,19.0256653,101.077185
11002,รพ.บ้านไผ่,ขอนแก่น,บ้านไผ่,ในเมือง,16.1037105,102.744267
10399,สสช.นาบง,น่าน,บ่อเกลือ,บ่อเกลือใต้,19.0978995,101.2046075
10400,สสช.สบมาง,น่าน,บ่อเกลือ,ภูฟ้า,18.9804733,101.2467116
10403,สสช.ใหม่ชายแดน,น่าน,สองแคว,ชนแดน,19.4990562,100.7210593
10405,สสช.สบปืน,น่าน,เฉลิมพระเกียรติ,ห้วยโก๋น,19.5779926,101.0174458
10409,สสช.บ้านต้นผึ้ง,พะเยา,เชียงคำ,ร่มเย็น,19.4710368,100.4899165
15129,ศสช.นาเกลือ,ชลบุรี,บางละมุง,นาเกลือ,12.9502772,100.8959568
15135,ศูนย์พงศ์แพทย์คลินิกเวชกรรม 2,สมุทรปราการ,เมืองสมุทรปราการ,สำโรงเหนือ,13.6451617,100.603988
14859,ศูนย์บริการเทศบาล(สามเหลี่ยม)ศูนย์บริการสาธารณสุข4,ขอนแก่น,เมืองขอนแก่น,ในเมือง,16.4472493,102.8245383
11577,ศูนย์บริการสาธารณสุขเทศบาลเมืองบางมูลนาก,พิจิตร,บางมูลนาก,บางมูลนาก,16.029998,100.375515
12464,สถานพยาบาลสถานีกาชาดที่ 5 สวางคนิวาส,สมุทรปราการ,เมืองสมุทรปราการ,ท้ายบ้าน,13.5696763,100.5999839
14351,ศูนย์บริการสาธารณสุขเทศบาลเมืองนราธิวาส,นราธิวาส,เมืองนราธิวาส,บางนาค,6.4336871,101.8255223
14364,ศูนย์บริการสาธารณสุขเทศบาลตำบลตะลุบัน,ปัตตานี,สายบุรี,ตะลุบัน,6.7082869,101.6418711
14415,ศูนย์บริการสาธารณสุขเทศบาลนครศรีอยุธยา,พระนครศรีอยุธยา,พระนครศรีอยุธยา,หอรัตนไชย,14.3555023,100.5788433
14419,ศูนย์บริการสาธารณสุขเทศบาลเมืองปราจีนบุรี,ปราจีนบุรี,เมืองปราจีนบุรี,หน้าเมือง,14.0568874,101.374256
15227,ศสช.ตลาดเก่า,ยะลา,เมืองยะลา,สะเตง,6.5641272,101.2964921
15244,ศูนย์บริการสาธารณสุขชุมชนวัดแคนอก,นนทบุรี,เมืองนนทบุรี,บางกระสอ,13.8793636,100.4832773
14812,ศูนย์บริการสาธารณสุขเทศบาลตำบลป่าโมก,อ่างทอง,ป่าโมก,บางปลากด,14.513724,100.462283
14334,ศสช.วัดไทรย์ใต้,นครสวรรค์,เมืองนครสวรรค์,-,15.7418026,100.0751331
14336,ศูนย์บริการสาธารณสุขเทศบาลตำบลตาคลี,นครสวรรค์,ตาคลี,ตาคลี,15.2595185,100.3486779
21425,สถานพยาบาลทัณฑสถานวัยหนุ่มพระนครศรีอยุธยา,พระนครศรีอยุธยา,พระนครศรีอยุธยา,หันตรา,14.364405,100.6137214
22428,หน่วยตรวจโรคศูนย์การบินทหารบก,ลพบุรี,เมืองลพบุรี,เขาพระงาม,14.9234326,100.6348062
14313,ศูนย์บริการสาธารณสุขเทศบาลเมืองสะเดา,สงขลา,สะเดา,สะเดา,6.6365805,100.4182317
21986,ศูนย์บริการสาธารณสุข(เทศบาล 4),ศรีสะเกษ,เมืองศรีสะเกษ,หนองครก,15.0767342,104.2977433
23034,ศูนย์แพทย์ชุมชนวัดบางพลีใหญ่กลาง,สมุทรปราการ,บางพลี,บางพลีใหญ่,13.6081939,100.7050859
24024,ศูนย์พงศ์แพทย์คลินิกเวชกรรม,สมุทรปราการ,เมืองสมุทรปราการ,สำโรงเหนือ,13.6451617,100.603988
23963,หัวเฉียวสหคลินิก,สมุทรปราการ,บางพลี,บางโฉลง,13.6114653,100.7600364
22780,สถานพยาบาลเรือนจำจังหวัดพระนครศรีอยุธยา,พระนครศรีอยุธยา,พระนครศรีอยุธยา,หันตรา,14.3695429,100.6044503
22784,สถานพยาบาลเรือนจำจังหวัดนนทบุรี,นนทบุรี,เมืองนนทบุรี,ตลาดขวัญ,13.84358,100.4939359
SN001,รพ.ในเครือกรมแพทย์ทหารเรือ,กรมแพทย์ทหารเรือ,เขตธนบุรี,บุคคโล,13.7094357,100.4858315
SNC01,แผนกแพทย์ศูนย์ฝึกทหารใหม่ ยศ.ทร.,กรมแพทย์ทหารเรือ,สัตหีบ,บางเสร่,12.747219,100.8787813
SNC02,แผนกแพทย์ รร.ชุมพลฯ,กรมแพทย์ทหารเรือ,สัตหีบ,บางเสร่,12.757266,100.8594093
SNC03,แผนกแพทย์สถานีการบิน กองการบินกองเรือยุทธการ,กรมแพทย์ทหารเรือ,บ้านฉาง,พลา,12.6789713,101.0146187
SNC04,กองพันพยาบาลกรมสนับสนุนกองพลนาวิกโยธิน,กรมแพทย์ทหารเรือ,สัตหีบ,สัตหีบ,12.6739375,100.8668125
SNC05,กองพันพยาบาลกรมสนับสนุนหน่วยบัญชาการต่อสู้อากาศยานและรักษาฝั่ง,กรมแพทย์ทหารเรือ,สัตหีบ,สัตหีบ,12.6742708,100.9027189
SNC06,กองร้อยพยาบาลกองกำลังป้องกันชายแดนจันทบุรีและตราด,กรมแพทย์ทหารเรือ,สัตหีบ,สัตหีบ,12.6112485,102.1037806
SNC07,หมวดพยาบาลหน่วยเฉพาะกิจนาวิกโยธินภาคใต้,กรมแพทย์ทหารเรือ,เมืองนราธิวาส,โคกเคียน,6.494191,101.7409946
SNC10,รพ.โรงเรียนนายเรือ,กรมแพทย์ทหารเรือ,เมืองสมุทรปราการ,ปากน้ำ,13.612561,100.590363
SNC11,รพ.สมเด็จพระนางเจ้าสิริกิติ์,ชลบุรี,สัตหีบ,พลูตาหลวง,12.6883094,100.9815633
14443,ศูนย์บริการสาธารณสุขเทศบาลเมืองพิจิตร,พิจิตร,เมืองพิจิตร,คลองคะเชนทร์,16.4427847,100.3478605
14445,ศูนย์บริการสาธารณสุขเทศบาลเมืองกาญจนบุรี,กาญจนบุรี,เมืองกาญจนบุรี,ปากแพรก,14.0383871,99.5562219
21739,ศูนย์บริการสาธารณสุข2 (บ้านนาโพธิ์),หนองคาย,เมืองหนองคาย,โพธิ์ชัย,17.8256713,102.7753172
SP001,รพ.ในเครือกรมแพทย์ทหารอากาศ,กรมแพทย์ทหารอากาศ,เขตสายไหม,คลองถนน,13.9104242,100.6186948
SPC01,รพ.ภูมิพลอดุลยเดช,กรุงเทพฯ,เขตสายไหม,คลองถนน,13.9102472,100.6173082
SPC02,รพ.จันทรุเบกษา,กรมแพทย์ทหารอากาศ,กำแพงแสน,-,14.1027787,99.9392182
SPC03,รพ.กองบิน 1,กรมแพทย์ทหารอากาศ,เมืองนครราชสีมา,-,14.9415189,102.1175404
SPC04,รพ.กองบิน 2,กรมแพทย์ทหารอากาศ,เมืองลพบุรี,เขาพระงาม,14.874823,100.6445845
SPC05,รพ.กองบิน 4 กองพลบินที่ 3,กรมแพทย์ทหารอากาศ,ตาคลี,-,15.2822632,100.3722477
SPC06,รพ.กองบิน 7,กรมแพทย์ทหารอากาศ,พุนพิน,มะลวน,9.1525032,99.11241389999999
SPC08,รพ.กองบิน 23,กรมแพทย์ทหารอากาศ,เมืองอุดรธานี,หมากแข้ง,17.4054865,102.7965732
SPC09,รพ.กองบิน 41,กรมแพทย์ทหารอากาศ,เมืองเชียงใหม่,พระสิงห์,18.7854206,98.9866509
SPC10,รพ.กองบิน 46,กรมแพทย์ทหารอากาศ,เมืองพิษณุโลก,อรัญญิก,16.7947018,100.2748242
SPC12,รพ.กองบิน 56,กรมแพทย์ทหารอากาศ,คลองหอยโข่ง,โคกม่วง,6.860993300000001,100.4059456
25018,ศูนย์บริการสาธารณสุขเทศบาลตำบลบ้านแฮด,ขอนแก่น,บ้านแฮด,บ้านแฮด,16.2110402,102.7612901
77481,หน่วยบริการปฐมภูมิกลุ่มงานเวชปฏิบัติครอบครัวและชุมชน รพ.บันนังสตา,ยะลา,บันนังสตา,บันนังสตา,6.265151599999999,101.2297105
77484,ศสช.โรงพยาบาลยะรัง,ปัตตานี,ยะรัง,ปิตูมุดี,6.7518927,101.2926114
77485,ศสช.ตำบลยามู,ปัตตานี,ยะหริ่ง,ยามู,6.854806699999999,101.3714748
77487,คลินิกชุมชนวัดใหม่ทุ่งคา,สงขลา,รัตภูมิ,กำแพงเพชร,7.119586699999999,100.2787642
99736,ศสช.โรงพยาบาลอ่าวลึก,กระบี่,อ่าวลึก,อ่าวลึกใต้,8.4017506,98.74232669999999
77494,คลินิกหมอครอบครัวศรีมาลา,พิจิตร,เมืองพิจิตร,ในเมือง,16.4437711,100.3487679
77662,ศสช.มหาวิทยาลัยเชียงใหม่,เชียงใหม่,เมืองเชียงใหม่,สุเทพ,18.8082363,98.9546953
77604,ศูนย์บริการสาธารณสุขเชิงเขา,สระบุรี,เมืองสระบุรี,ปากเพรียว,14.5291176,100.910708
41611,มิตรไมตรีคลินิกเวชกรรม(เมืองทองธานี),นนทบุรี,ปากเกร็ด,บ้านใหม่,13.9096434,100.549816
41612,มิตรไมตรีคลินิกเวชกรรม(ปลายบาง),นนทบุรี,บางกรวย,มหาสวัสดิ์,13.8058391,100.4279813
41613,มิตรไมตรีคลินิกเวชกรรม(งามวงศ์วาน),นนทบุรี,เมืองนนทบุรี,บางเขน,13.8566003,100.5401302
41614,มิตรไมตรีคลินิกเวชกรรม (เสาธงหิน),นนทบุรี,บางใหญ่,เสาธงหิน,13.8668156,100.4169526
41615,มิตรไมตรีคลินิกเวชกรรม(บางศรีเมือง),นนทบุรี,เมืองนนทบุรี,บางกร่าง,13.8337546,100.4687408
41616,มิตรไมตรีคลินิกเวชกรรม(ตลาดสตาร์),ระยอง,เมืองระยอง,ท่าประดู่,12.6851682,101.2717142
41623,มิตรไมตรีคลินิกเวชกรรม(บ่อวิน),ชลบุรี,ศรีราชา,บ่อวิน,13.033927,101.0955231
41630,มิตรไมตรีคลินิกเวชกรรม(พัทยาใต้),ชลบุรี,บางละมุง,หนองปรือ,12.9165871,100.8956504
10949,รพ.น้ำยืน,อุบลราชธานี,น้ำยืน,สีวิเชียร,14.461515,105.0206757
14861,ศูนย์แพทย์วัดหนองแวง(รพศ.),ขอนแก่น,เมืองขอนแก่น,ในเมือง,16.4087262,102.8352714
10227,สสช.บ้านปากลา,อุบลราชธานี,โขงเจียม,นาโพธิ์กลาง,15.6435147,105.6339908
10230,สสช.บ้านจันลา,อุบลราชธานี,น้ำยืน,โดมประดิษฐ์,14.4274404,105.1382241
10411,สสช.บ้านนาบัว,พะเยา,เชียงม่วน,สระ,18.979658,100.144084
14557,ศูนย์บริการสาธารณสุขเทศบาลนครตรัง1,ตรัง,เมืองตรัง,ทับเที่ยง,7.573009900000001,99.6104431
99794,ศสช.หนองสองห้อง,ขอนแก่น,หนองสองห้อง,หนองสองห้อง,15.6979174,102.7709807
99831,ศสช.โรงพยาบาลศรีบรรพต,พัทลุง,ศรีบรรพต,เขาย่า,7.7176147,99.8795055
99841,ศสช.ขลุง,จันทบุรี,ขลุง,ขลุง,12.4596839,102.2233233
99933,ศสช.ซำสูง,ขอนแก่น,ซำสูง,กระนวน,16.53287,103.0702646
99734,คลินิกหมอครอบครัวลำทับ,กระบี่,ลำทับ,ลำทับ,8.0820246,99.3118282
99745,ศสช.เมืองเวชกรรม,ยะลา,เมืองยะลา,สะเตง,6.556407399999999,101.2922589
77614,ศสช.เทศบาลเมืองหล่มสัก,เพชรบูรณ์,หล่มสัก,หล่มสัก,16.751003,101.252875
03749,รพ.สต.บ้านนาชุม,อุบลราชธานี,พิบูลมังสาหาร,บ้านแขม,15.0134648,105.2545888
00964,รพ.สต.บางพึ่ง,สมุทรปราการ,พระประแดง,บางพึ่ง,13.6579135,100.5211744
00965,รพ.สต.บางจาก,สมุทรปราการ,พระประแดง,บางจาก,13.6279493,100.533899
01015,รพ.สต.บางคูเวียง,นนทบุรี,บางกรวย,บางคูเวียง,13.8141042,100.4086282
03747,รพ.สต.อ่างศิลา,อุบลราชธานี,พิบูลมังสาหาร,อ่างศิลา,15.0573344,105.2779983
00973,รพ.สต.บางกอบัว,สมุทรปราการ,พระประแดง,บางกอบัว,13.6844607,100.5843348
00977,รพ.สต.สำโรงกลาง,สมุทรปราการ,พระประแดง,สำโรงกลาง,13.6374266,100.6161618
00980,รพ.สต.นาเกลือ,สมุทรปราการ,พระสมุทรเจดีย์,นาเกลือ,13.5453759,100.5033753
00981,รพ.สต.บ้านคลองทะเล,สมุทรปราการ,พระสมุทรเจดีย์,นาเกลือ,13.5131295,100.5350754
00982,รพ.สต.บ้านคลองสวน,สมุทรปราการ,พระสมุทรเจดีย์,บ้านคลองสวน,13.5778327,100.4698557
00984,รพ.สต.บ้านขุนสมุทร,สมุทรปราการ,พระสมุทรเจดีย์,แหลมฟ้าผ่า,13.5131295,100.5350754
01029,รพ.สต.หมู่ที่ 5 ต.บางบัวทอง,นนทบุรี,บางบัวทอง,บางบัวทอง,13.9525541,100.409676
00999,รพ.สต.บางไผ่,นนทบุรี,เมืองนนทบุรี,บางไผ่,13.8248881,100.4930564
00986,รพ.สต.บ้านคู่สร้าง,สมุทรปราการ,พระสมุทรเจดีย์,ในคลองบางปลากด,13.5874173,100.5354344
01004,รพ.สต.บ้านวัดไทรม้าเหนือ,นนทบุรี,เมืองนนทบุรี,ไทรม้า,13.8633866,100.4755769
00950,รพ.สต.บางพลีน้อย,สมุทรปราการ,บางบ่อ,บางพลีน้อย,13.6568684,100.9252013
00961,รพ.สต.บางโฉลง,สมุทรปราการ,บางพลี,บางโฉลง,13.6132052,100.7425145
00962,รพ.สต.ราชาเทวะ,สมุทรปราการ,บางพลี,ราชาเทวะ,13.6760499,100.7202006
00933,รพ.สต.สำโรงเหนือ,สมุทรปราการ,เมืองสมุทรปราการ,สำโรงเหนือ,13.6374266,100.6161618
00938,รพ.สต.บางโปรง,สมุทรปราการ,เมืองสมุทรปราการ,บางโปรง,13.6280749,100.5796
00944,รพ.สต.แพรกษาใหม่,สมุทรปราการ,เมืองสมุทรปราการ,แพรกษาใหม่,13.5583888,100.6922303
02201,รพ.สต.บางเตย,ฉะเชิงเทรา,เมืองฉะเชิงเทรา,บางเตย,13.6909743,101.0045864
02205,รพ.สต.บางกระเจ็ด,ฉะเชิงเทรา,บางคล้า,บางกระเจ็ด,13.8697885,101.2256563
02216,รพ.สต.ดอนเกาะกา,ฉะเชิงเทรา,บางน้ำเปรี้ยว,ดอนเกาะกา,13.9205141,101.0294265
02217,รพ.สต.บ้านคลอง 21,ฉะเชิงเทรา,บางน้ำเปรี้ยว,ดอนเกาะกา,13.947651,101.017632
01333,รพ.สต.เสนา,พระนครศรีอยุธยา,อุทัย,เสนา,14.2684958,100.3722477
01334,รพ.สต.หนองน้ำส้ม,พระนครศรีอยุธยา,อุทัย,หนองน้ำส้ม,14.3163425,100.7154228
